[{"id":223771,"name":"American Hotel","address":"Leidsekade 97, Amsterdam, Netherlands","category":"accommodation","location":"Amsterdam","lat":52.363826,"lng":4.881369,"numReviews":5,"reviews":"http:\/\/tour-pedia.org\/api\/getReviewsByPlaceId?placeId=223771","polarity":8,"details":"http:\/\/tour-pedia.org\/api\/getPlaceDetails?id=223771"},{"id":223776,"name":"Hotel Espresso City Center","address":"Overtoom 57, Amsterdam, Netherlands","category":"accommodation","location":"Amsterdam","lat":52.362864,"lng":4.876344,"numReviews":5,"reviews":"http:\/\/tour-pedia.org\/api\/getReviewsByPlaceId?placeId=223776","polarity":0,"details":"http:\/\/tour-pedia.org\/api\/getPlaceDetails?id=223776"},{"id":223778,"name":"Hotel Amsterdam","address":"Damrak 93-94, Amsterdam, Netherlands","category":"accommodation","location":"Amsterdam","lat":52.37369,"lng":4.893623,"details":"http:\/\/tour-pedia.org\/api\/getPlaceDetails?id=223778"},{"id":223779,"name":"Hampshire Boutique Hotel - Sebastian's","address":"Keizersgracht 15, Amsterdam, Netherlands","category":"accommodation","location":"Amsterdam","lat":52.379109,"lng":4.889793,"numReviews":3,"reviews":"http:\/\/tour-pedia.org\/api\/getReviewsByPlaceId?placeId=223779","polarity":6,"details":"http:\/\/tour-pedia.org\/api\/getPlaceDetails?id=223779"},{"id":223793,"name":"NL Hotel","address":"Frans van Mierisstraat 34, Amsterdam, Netherlands","category":"accommodation","location":"Amsterdam","lat":52.354664,"lng":4.882476,"details":"http:\/\/tour-pedia.org\/api\/getPlaceDetails?id=223793"},{"id":223818,"name":"BLUE TOWER","address":"Leeuwendalersweg 21, Amsterdam, Netherlands","category":"accommodation","location":"Amsterdam","lat":52.379318,"lng":4.845886,"numReviews":5,"reviews":"http:\/\/tour-pedia.org\/api\/getReviewsByPlaceId?placeId=223818","polarity":3,"details":"http:\/\/tour-pedia.org\/api\/getPlaceDetails?id=223818"},{"id":223829,"name":"Amsterdam Bed and Breakfast CityCenter","address":"Sint Jacobsstraat 21, Amsterdam, Netherlands","category":"accommodation","location":"Amsterdam","lat":52.376568,"lng":4.894706,"numReviews":5,"reviews":"http:\/\/tour-pedia.org\/api\/getReviewsByPlaceId?placeId=223829","polarity":10,"details":"http:\/\/tour-pedia.org\/api\/getPlaceDetails?id=223829"},{"id":223835,"name":"FALCON PLAZA AMSTERDAM","address":"Valkenburgerstraat 72-74, Amsterdam, Netherlands","category":"accommodation","location":"Amsterdam","lat":52.369949,"lng":4.907378,"numReviews":4,"reviews":"http:\/\/tour-pedia.org\/api\/getReviewsByPlaceId?placeId=223835","polarity":3,"details":"http:\/\/tour-pedia.org\/api\/getPlaceDetails?id=223835"},{"id":223839,"name":"HOTEL DE PARIS AMSTERDAM","address":"Marnixstraat 372, Amsterdam, Netherlands","category":"accommodation","location":"Amsterdam","lat":52.365787,"lng":4.8798,"numReviews":5,"reviews":"http:\/\/tour-pedia.org\/api\/getReviewsByPlaceId?placeId=223839","polarity":4,"details":"http:\/\/tour-pedia.org\/api\/getPlaceDetails?id=223839"},{"id":223847,"name":"Delta","address":"Damrak 42-43, Amsterdam, Netherlands","category":"accommodation","location":"Amsterdam","lat":52.37566,"lng":4.89619,"numReviews":5,"reviews":"http:\/\/tour-pedia.org\/api\/getReviewsByPlaceId?placeId=223847","polarity":5,"details":"http:\/\/tour-pedia.org\/api\/getPlaceDetails?id=223847"},{"id":223849,"name":"HOTEL CITY GARDEN AMSTERDAM","address":"Pieter Cornelisz. Hooftstraat 162, Amsterdam, Netherlands","category":"accommodation","location":"Amsterdam","lat":52.359167,"lng":4.876331,"numReviews":3,"reviews":"http:\/\/tour-pedia.org\/api\/getReviewsByPlaceId?placeId=223849","polarity":4,"details":"http:\/\/tour-pedia.org\/api\/getPlaceDetails?id=223849"},{"id":223861,"name":"'T Hotel","address":"Leliegracht 18, Amsterdam, Netherlands","category":"accommodation","location":"Amsterdam","lat":52.375144,"lng":4.887126,"details":"http:\/\/tour-pedia.org\/api\/getPlaceDetails?id=223861"},{"id":223894,"name":"Paganini","address":"Stadhouderskade 68, Amsterdam, Netherlands","category":"accommodation","location":"Amsterdam","lat":52.35814,"lng":4.889728,"numReviews":5,"reviews":"http:\/\/tour-pedia.org\/api\/getReviewsByPlaceId?placeId=223894","polarity":4,"details":"http:\/\/tour-pedia.org\/api\/getPlaceDetails?id=223894"},{"id":223896,"name":"Hotel Cornerhouse","address":"Burgwallen-Nieuwe Zijde, Amsterdam, Netherlands","category":"accommodation","location":"Amsterdam","lat":52.37431,"lng":4.89145,"details":"http:\/\/tour-pedia.org\/api\/getPlaceDetails?id=223896"},{"id":223903,"name":"Hugo Apartments","address":"Keizersgracht 1015, Amsterdam, Netherlands","category":"accommodation","location":"Amsterdam","lat":52.363924,"lng":4.900053,"details":"http:\/\/tour-pedia.org\/api\/getPlaceDetails?id=223903"},{"id":223908,"name":"NL-Hotel","address":"Nassaukade 368, Amsterdam, Netherlands","category":"accommodation","location":"Amsterdam","lat":52.365756,"lng":4.878512,"numReviews":2,"reviews":"http:\/\/tour-pedia.org\/api\/getReviewsByPlaceId?placeId=223908","polarity":10,"details":"http:\/\/tour-pedia.org\/api\/getPlaceDetails?id=223908"},{"id":223925,"name":"De Lastage Apartments","address":"Valkenburgerstraat 188A, Amsterdam, Netherlands","category":"accommodation","location":"Amsterdam","lat":52.369241,"lng":4.90554,"numReviews":1,"reviews":"http:\/\/tour-pedia.org\/api\/getReviewsByPlaceId?placeId=223925","polarity":10,"details":"http:\/\/tour-pedia.org\/api\/getPlaceDetails?id=223925"},{"id":223932,"name":"EasyHotel Amsterdam Ferdinand Bolstraat","address":"Van Ostadestraat 97, Amsterdam, Netherlands","category":"accommodation","location":"Amsterdam","lat":52.352222,"lng":4.891432,"numReviews":5,"reviews":"http:\/\/tour-pedia.org\/api\/getReviewsByPlaceId?placeId=223932","polarity":8,"details":"http:\/\/tour-pedia.org\/api\/getPlaceDetails?id=223932"},{"id":223934,"name":"MeApartment","address":"Noorderkerstraat 9, Amsterdam, Netherlands","category":"accommodation","location":"Amsterdam","lat":52.38003,"lng":4.885956,"details":"http:\/\/tour-pedia.org\/api\/getPlaceDetails?id=223934"},{"id":223943,"name":"Lloyd Hotel & Culturele Ambassade","address":"Oostelijke Handelskade 34, Amsterdam, Netherlands","category":"accommodation","location":"Amsterdam","lat":52.37423,"lng":4.934777,"numReviews":5,"reviews":"http:\/\/tour-pedia.org\/api\/getReviewsByPlaceId?placeId=223943","polarity":8,"details":"http:\/\/tour-pedia.org\/api\/getPlaceDetails?id=223943"},{"id":223947,"name":"Westerndock Executive Apartment","address":"Westerdoksdijk 666, Amsterdam, Netherlands","category":"accommodation","location":"Amsterdam","lat":52.387978,"lng":4.892009,"details":"http:\/\/tour-pedia.org\/api\/getPlaceDetails?id=223947"},{"id":223948,"name":"NH Central Station","address":"Distelkade 21, Amsterdam, Netherlands","category":"accommodation","location":"Amsterdam","lat":52.392096,"lng":4.910319,"details":"http:\/\/tour-pedia.org\/api\/getPlaceDetails?id=223948"},{"id":223951,"name":"Hotel 717","address":"Prinsengracht 717, Amsterdam, Netherlands","category":"accommodation","location":"Amsterdam","lat":52.36487,"lng":4.88514,"details":"http:\/\/tour-pedia.org\/api\/getPlaceDetails?id=223951"},{"id":223955,"name":"Amsterdam Apartments B.V.","address":"Gerard Doustraat 6, Amsterdam, Netherlands","category":"accommodation","location":"Amsterdam","lat":52.355191,"lng":4.887403,"numReviews":2,"reviews":"http:\/\/tour-pedia.org\/api\/getReviewsByPlaceId?placeId=223955","polarity":0,"details":"http:\/\/tour-pedia.org\/api\/getPlaceDetails?id=223955"},{"id":223956,"name":"Hotel Kap","address":"Den Texstraat 5B, Amsterdam, Netherlands","category":"accommodation","location":"Amsterdam","lat":52.358979,"lng":4.893587,"numReviews":3,"reviews":"http:\/\/tour-pedia.org\/api\/getReviewsByPlaceId?placeId=223956","polarity":5,"details":"http:\/\/tour-pedia.org\/api\/getPlaceDetails?id=223956"},{"id":223961,"name":"City Retreats","address":"Johannes Verhulstst\u200braat 163, Amsterdam, Netherlands","category":"accommodation","location":"Amsterdam","lat":52.353193,"lng":4.867771,"details":"http:\/\/tour-pedia.org\/api\/getPlaceDetails?id=223961"},{"id":223963,"name":"Rivierenbuurt","address":"Rivierenbuurt, 1078 Amsterdam, The Netherlands","category":"accommodation","location":"Amsterdam","lat":52.3452799,"lng":4.8975729,"details":"http:\/\/tour-pedia.org\/api\/getPlaceDetails?id=223963"},{"id":223971,"name":"Distortion Records","address":"Westerstraat 244, Amsterdam, Netherlands","category":"accommodation","location":"Amsterdam","lat":52.37801,"lng":4.880504,"numReviews":5,"reviews":"http:\/\/tour-pedia.org\/api\/getReviewsByPlaceId?placeId=223971","polarity":0,"details":"http:\/\/tour-pedia.org\/api\/getPlaceDetails?id=223971"},{"id":223973,"name":"Metropolitan Apartments","address":"Kadijksplein 16A, Amsterdam, Netherlands","category":"accommodation","location":"Amsterdam","lat":52.370238,"lng":4.912604,"details":"http:\/\/tour-pedia.org\/api\/getPlaceDetails?id=223973"},{"id":223974,"name":"Apartment Nieuwmarkt View","address":"Gelderse Kade 111 1H, Amesterd\u00e3o, Nederland","category":"accommodation","location":"Amsterdam","lat":52.373225,"lng":4.901176,"details":"http:\/\/tour-pedia.org\/api\/getPlaceDetails?id=223974"},{"id":223975,"name":"FALCON PLAZA AMSTERDAM","address":"FALCON PLAZA AMSTERDAM, Valkenburgerstraat 72-74, 1011 LZ Amsterdam, The Netherlands","category":"accommodation","location":"Amsterdam","lat":52.3699489,"lng":4.9073779,"details":"http:\/\/tour-pedia.org\/api\/getPlaceDetails?id=223975"},{"id":223982,"name":"Bastion Hotel Amsterdam Centrum-Noord","address":"Buikslotermeer, Amsterdam, Netherlands","category":"accommodation","location":"Amsterdam","lat":52.39594,"lng":4.9285,"numReviews":2,"reviews":"http:\/\/tour-pedia.org\/api\/getReviewsByPlaceId?placeId=223982","polarity":1,"details":"http:\/\/tour-pedia.org\/api\/getPlaceDetails?id=223982"},{"id":223995,"name":"Amsterdam Urban Adventures","address":"Formosastraat 3, Amsterdam, Netherlands","category":"accommodation","location":"Amsterdam","lat":52.378354,"lng":4.89734,"numReviews":1,"reviews":"http:\/\/tour-pedia.org\/api\/getReviewsByPlaceId?placeId=223995","polarity":0,"details":"http:\/\/tour-pedia.org\/api\/getPlaceDetails?id=223995"},{"id":223999,"name":"Tatiana Bed & Breakfast","address":"Kloveniersburgwal 53HS, Amsterdam, Netherlands","category":"accommodation","location":"Amsterdam","lat":52.370481,"lng":4.898607,"details":"http:\/\/tour-pedia.org\/api\/getPlaceDetails?id=223999"},{"id":224013,"name":"Bed & Apartment Singel 96","address":"Singel 96, Amsterdam, Netherlands","category":"accommodation","location":"Amsterdam","lat":52.376758,"lng":4.891553,"details":"http:\/\/tour-pedia.org\/api\/getPlaceDetails?id=224013"},{"id":224014,"name":"Quartier Latin Apartment - One-Bedroom Apartment","address":"Frans Halsstraat 94, Amsterdam, Netherlands","category":"accommodation","location":"Amsterdam","lat":52.355072,"lng":4.888335,"details":"http:\/\/tour-pedia.org\/api\/getPlaceDetails?id=224014"},{"id":224020,"name":"Winston Hotel","address":"Warmoesstraat 129, Amsterdam, Netherlands","category":"accommodation","location":"Amsterdam","lat":52.373981,"lng":4.896237,"details":"http:\/\/tour-pedia.org\/api\/getPlaceDetails?id=224020"},{"id":224024,"name":"Esser \/ V","address":"Kalkmarkt 5 HS, Amsterdam, Netherlands","category":"accommodation","location":"Amsterdam","lat":52.372759,"lng":4.906926,"details":"http:\/\/tour-pedia.org\/api\/getPlaceDetails?id=224024"},{"id":224032,"name":"Bed&Guide","address":"Kerkstraat 202, Amsterdam, Netherlands","category":"accommodation","location":"Amsterdam","lat":52.363103,"lng":4.890564,"details":"http:\/\/tour-pedia.org\/api\/getPlaceDetails?id=224032"},{"id":224046,"name":"Amsterdam","address":"Amsterdam, The Netherlands","category":"accommodation","location":"Amsterdam","lat":52.3702157,"lng":4.8951679,"details":"http:\/\/tour-pedia.org\/api\/getPlaceDetails?id=224046"},{"id":224057,"name":"Jordaan Apartments Amsterdam","address":"Korte Prinsengracht 42, Amsterdam, Netherlands","category":"accommodation","location":"Amsterdam","lat":52.381111,"lng":4.888607,"details":"http:\/\/tour-pedia.org\/api\/getPlaceDetails?id=224057"},{"id":224059,"name":"Northern Trust Global Services Limited","address":"Zuidplein, Amsterdam, Netherlands","category":"accommodation","location":"Amsterdam","lat":52.339802,"lng":4.872674,"details":"http:\/\/tour-pedia.org\/api\/getPlaceDetails?id=224059"},{"id":224064,"name":"Canal House Amsterdam - Guest House","address":"Brouwersgracht 124, Amxtec\u0111am, Nederland","category":"accommodation","location":"Amsterdam","lat":52.380158,"lng":4.889545,"details":"http:\/\/tour-pedia.org\/api\/getPlaceDetails?id=224064"},{"id":224070,"name":"House-Boat Hotel Amsterdam","address":"Prinsengracht 274G, Amsterdam, Netherlands","category":"accommodation","location":"Amsterdam","lat":52.37101,"lng":4.882696,"numReviews":1,"reviews":"http:\/\/tour-pedia.org\/api\/getReviewsByPlaceId?placeId=224070","polarity":5,"details":"http:\/\/tour-pedia.org\/api\/getPlaceDetails?id=224070"},{"id":224080,"name":"Juul Peeters Styling","address":"Molenpad 1hg, Amsterdam, Netherlands","category":"accommodation","location":"Amsterdam","lat":52.366991,"lng":4.883658,"details":"http:\/\/tour-pedia.org\/api\/getPlaceDetails?id=224080"},{"id":224084,"name":"De Baronie B&B","address":"Kalkmarkt 2, Amsterdam, Netherlands","category":"accommodation","location":"Amsterdam","lat":52.372833,"lng":4.907091,"details":"http:\/\/tour-pedia.org\/api\/getPlaceDetails?id=224084"},{"id":224098,"name":"Amsterdam Centraal","address":"Stationsplein, Amsterdam, Netherlands","category":"accommodation","location":"Amsterdam","lat":52.378781,"lng":4.90069,"numReviews":5,"reviews":"http:\/\/tour-pedia.org\/api\/getReviewsByPlaceId?placeId=224098","polarity":0,"details":"http:\/\/tour-pedia.org\/api\/getPlaceDetails?id=224098"},{"id":224101,"name":"Stichting Triple Five Guesthouse","address":"Prinsengracht 555, Amsterdam, Netherlands","category":"accommodation","location":"Amsterdam","lat":52.368372,"lng":4.88288,"details":"http:\/\/tour-pedia.org\/api\/getPlaceDetails?id=224101"},{"id":224104,"name":"Xaviera Hollander","address":"Stadionweg 17, Amsterdam, Netherlands","category":"accommodation","location":"Amsterdam","lat":52.34756,"lng":4.881016,"numReviews":1,"reviews":"http:\/\/tour-pedia.org\/api\/getReviewsByPlaceId?placeId=224104","polarity":10,"details":"http:\/\/tour-pedia.org\/api\/getPlaceDetails?id=224104"},{"id":224106,"name":"5* B&B Amsterdam","address":"Veembroederhof 49, Amsterdam, Netherlands","category":"accommodation","location":"Amsterdam","lat":52.376592,"lng":4.922668,"details":"http:\/\/tour-pedia.org\/api\/getPlaceDetails?id=224106"},{"id":224109,"name":"Captain Apartment","address":"Binnenkant 46, Amsterdam, Netherlands","category":"accommodation","location":"Amsterdam","lat":52.372733,"lng":4.905998,"details":"http:\/\/tour-pedia.org\/api\/getPlaceDetails?id=224109"},{"id":224117,"name":"Garden House","address":"Schinkelkade 145, Amsterdam, Netherlands","category":"accommodation","location":"Amsterdam","lat":52.349071,"lng":4.852233,"details":"http:\/\/tour-pedia.org\/api\/getPlaceDetails?id=224117"},{"id":224129,"name":"Comfy City Home Apartment","address":"Kerkstraat 391, Amsterdam, Netherlands","category":"accommodation","location":"Amsterdam","lat":52.36305,"lng":4.899247,"details":"http:\/\/tour-pedia.org\/api\/getPlaceDetails?id=224129"},{"id":224141,"name":"Prince Henry Private Suites & Gardens","address":"Prins Hendriklaan 8, Amsterdam, Netherlands","category":"accommodation","location":"Amsterdam","lat":52.354423,"lng":4.864394,"details":"http:\/\/tour-pedia.org\/api\/getPlaceDetails?id=224141"},{"id":224149,"name":"Studio Redlight","address":"Kloveniersburgwal 26, Amsterdam, Netherlands","category":"accommodation","location":"Amsterdam","lat":52.371623,"lng":4.898933,"details":"http:\/\/tour-pedia.org\/api\/getPlaceDetails?id=224149"},{"id":224151,"name":"B&NB Herengracht","address":"Herengracht 176, Amsterdam, Netherlands","category":"accommodation","location":"Amsterdam","lat":52.373934,"lng":4.886917,"details":"http:\/\/tour-pedia.org\/api\/getPlaceDetails?id=224151"},{"id":224154,"name":"Missortelia B&B","address":"Orteliuskade 51, Amsterdam, Netherlands","category":"accommodation","location":"Amsterdam","lat":52.36805,"lng":4.849413,"numReviews":1,"reviews":"http:\/\/tour-pedia.org\/api\/getReviewsByPlaceId?placeId=224154","polarity":0,"details":"http:\/\/tour-pedia.org\/api\/getPlaceDetails?id=224154"},{"id":224164,"name":"Pieter de Hoochstraat 2","address":"Pieter de Hoochstraat 2, 1071 EE Amsterdam, The Netherlands","category":"accommodation","location":"Amsterdam","lat":52.3575641,"lng":4.8851728,"details":"http:\/\/tour-pedia.org\/api\/getPlaceDetails?id=224164"},{"id":224168,"name":"@Early's Olympic old and new Style","address":"Havenstraat 3, Amsterdam, Netherlands","category":"accommodation","location":"Amsterdam","lat":52.349462,"lng":4.856264,"details":"http:\/\/tour-pedia.org\/api\/getPlaceDetails?id=224168"},{"id":224169,"name":"Amsterhouse B&B","address":"Haringpakkerssteeg 8, Amsterdam, Netherlands","category":"accommodation","location":"Amsterdam","lat":52.376933,"lng":4.897184,"details":"http:\/\/tour-pedia.org\/api\/getPlaceDetails?id=224169"},{"id":224176,"name":"Pieter de Hoochstraat 1","address":"Pieter de Hoochstraat 1, 1071 ED Amsterdam, The Netherlands","category":"accommodation","location":"Amsterdam","lat":52.3576411,"lng":4.8853695,"details":"http:\/\/tour-pedia.org\/api\/getPlaceDetails?id=224176"},{"id":224178,"name":"B & B Hutspot","address":"Nigellestraat 15, Amsterdam, Netherlands","category":"accommodation","location":"Amsterdam","lat":52.39599,"lng":4.916708,"details":"http:\/\/tour-pedia.org\/api\/getPlaceDetails?id=224178"},{"id":224181,"name":"Htel executive apartments","address":"Teilingen 9, Amsterdam, Netherlands","category":"accommodation","location":"Amsterdam","lat":52.327353,"lng":4.871794,"numReviews":2,"reviews":"http:\/\/tour-pedia.org\/api\/getReviewsByPlaceId?placeId=224181","polarity":10,"details":"http:\/\/tour-pedia.org\/api\/getPlaceDetails?id=224181"},{"id":224192,"name":"stichting buenosdias","address":"Jeltje de Bosch Kemperpad 120, Amsterdam, Netherlands","category":"accommodation","location":"Amsterdam","lat":52.362702,"lng":4.867987,"details":"http:\/\/tour-pedia.org\/api\/getPlaceDetails?id=224192"},{"id":224199,"name":"Hotelboat Ideaal","address":"Amsteldijk 729, 1074 JH Amsterdam, Netherlands","category":"accommodation","location":"Amsterdam","lat":52.351273,"lng":4.909354,"numReviews":2,"reviews":"http:\/\/tour-pedia.org\/api\/getReviewsByPlaceId?placeId=224199","polarity":10,"details":"http:\/\/tour-pedia.org\/api\/getPlaceDetails?id=224199"},{"id":224202,"name":"Eastern Docklands","address":"Eastern Docklands, Amsterdam, The Netherlands","category":"accommodation","location":"Amsterdam","lat":52.3666667,"lng":4.9333333,"details":"http:\/\/tour-pedia.org\/api\/getPlaceDetails?id=224202"},{"id":224204,"name":"Groene tunnel","address":"Groene tunnel, Amsterdam-Oost, The Netherlands","category":"accommodation","location":"Amsterdam","lat":52.3525853,"lng":4.9986668,"details":"http:\/\/tour-pedia.org\/api\/getPlaceDetails?id=224204"},{"id":224209,"name":"The Monk Amsterdam Apartments","address":"Monnikenstraat 19, Amsterdam, Netherlands","category":"accommodation","location":"Amsterdam","lat":52.373163,"lng":4.899677,"numReviews":3,"reviews":"http:\/\/tour-pedia.org\/api\/getReviewsByPlaceId?placeId=224209","polarity":8,"details":"http:\/\/tour-pedia.org\/api\/getPlaceDetails?id=224209"},{"id":224217,"name":"ServicedStay.com","address":"Orlyplein 85, Amsterdam, Netherlands","category":"accommodation","location":"Amsterdam","lat":52.390095,"lng":4.837502,"details":"http:\/\/tour-pedia.org\/api\/getPlaceDetails?id=224217"},{"id":224218,"name":"BED AND BREAKFAST AMSTERDAM NOORD","address":"Pieter Boorsmapad 14, Amsterdam, Netherlands","category":"accommodation","location":"Amsterdam","lat":52.420205,"lng":4.894832,"details":"http:\/\/tour-pedia.org\/api\/getPlaceDetails?id=224218"},{"id":224219,"name":"Dijkman \/ H","address":"Stoombootweg 100, Amsterdam, Netherlands","category":"accommodation","location":"Amsterdam","lat":52.417381,"lng":4.905023,"details":"http:\/\/tour-pedia.org\/api\/getPlaceDetails?id=224219"},{"id":224220,"name":"Moza\u00efek Lagarto","address":"Spaarndammerstraat 58, Amsterdam, Netherlands","category":"accommodation","location":"Amsterdam","lat":52.387901,"lng":4.880773,"details":"http:\/\/tour-pedia.org\/api\/getPlaceDetails?id=224220"},{"id":224222,"name":"Hotelboat Amsterdam","address":"Postbus 16645, Oosterdok, steiger 3, Amsterdam, Netherlands","category":"accommodation","location":"Amsterdam","lat":52.373398,"lng":4.911511,"details":"http:\/\/tour-pedia.org\/api\/getPlaceDetails?id=224222"},{"id":224224,"name":"Filz \/ F J","address":"Westerdok 103, Amsterdam, Netherlands","category":"accommodation","location":"Amsterdam","lat":52.387597,"lng":4.891729,"details":"http:\/\/tour-pedia.org\/api\/getPlaceDetails?id=224224"},{"id":224225,"name":"Mevrouw Vos","address":"Westerdok 103, Amsterdam, Netherlands","category":"accommodation","location":"Amsterdam","lat":52.387597,"lng":4.891729,"details":"http:\/\/tour-pedia.org\/api\/getPlaceDetails?id=224225"},{"id":224226,"name":"\"Bona Spes\"","address":"Westerdok 85, Amsterdam, Netherlands","category":"accommodation","location":"Amsterdam","lat":52.386669,"lng":4.891635,"details":"http:\/\/tour-pedia.org\/api\/getPlaceDetails?id=224226"},{"id":224227,"name":"BnBriga","address":"Prinseneiland 14, Amsterdam, Netherlands","category":"accommodation","location":"Amsterdam","lat":52.386557,"lng":4.887694,"details":"http:\/\/tour-pedia.org\/api\/getPlaceDetails?id=224227"},{"id":224228,"name":"Camperplaats Amsterdam","address":"Lutkemeerweg 149, Amsterdam, Netherlands","category":"accommodation","location":"Amsterdam","lat":52.36357,"lng":4.77253,"numReviews":1,"reviews":"http:\/\/tour-pedia.org\/api\/getReviewsByPlaceId?placeId=224228","polarity":10,"details":"http:\/\/tour-pedia.org\/api\/getPlaceDetails?id=224228"},{"id":224229,"name":"Caravan Bedrijf \"Klavervier\"","address":"Osdorperweg 750, Amsterdam, Netherlands","category":"accommodation","location":"Amsterdam","lat":52.373692,"lng":4.772616,"details":"http:\/\/tour-pedia.org\/api\/getPlaceDetails?id=224229"},{"id":224230,"name":"Good Bed and Breakfast","address":"Slotermeer-Zuidwest, Amsterdam, Netherlands","category":"accommodation","location":"Amsterdam","lat":52.37301,"lng":4.81086,"details":"http:\/\/tour-pedia.org\/api\/getPlaceDetails?id=224230"},{"id":224231,"name":"Bed & Breakfast Borage","address":"Slotermeer-Zuidwest, Amsterdam, Netherlands","category":"accommodation","location":"Amsterdam","lat":52.37381,"lng":4.82056,"details":"http:\/\/tour-pedia.org\/api\/getPlaceDetails?id=224231"},{"id":224232,"name":"De Hartelust","address":"Haarlemmerweg 705, Amsterdam, Netherlands","category":"accommodation","location":"Amsterdam","lat":52.383991,"lng":4.78787,"details":"http:\/\/tour-pedia.org\/api\/getPlaceDetails?id=224232"},{"id":224233,"name":"Captain Apartment","address":"Admiraal de Ruijterweg 416, Amsterdam, Netherlands","category":"accommodation","location":"Amsterdam","lat":52.383194,"lng":4.850355,"details":"http:\/\/tour-pedia.org\/api\/getPlaceDetails?id=224233"},{"id":224234,"name":"Free Room Tonight","address":"Blancefloorstraat 24\/3, Amsterdam, Netherlands","category":"accommodation","location":"Amsterdam","lat":52.378477,"lng":4.855436,"details":"http:\/\/tour-pedia.org\/api\/getPlaceDetails?id=224234"},{"id":224235,"name":"Purple Apartment","address":"Admiraal de Ruijterweg 371, Amsterdam, Netherlands","category":"accommodation","location":"Amsterdam","lat":52.381881,"lng":4.852251,"details":"http:\/\/tour-pedia.org\/api\/getPlaceDetails?id=224235"},{"id":224236,"name":"Artica Stay","address":"Bos en Lommerweg 58, Amsterdam, Netherlands","category":"accommodation","location":"Amsterdam","lat":52.380771,"lng":4.856352,"details":"http:\/\/tour-pedia.org\/api\/getPlaceDetails?id=224236"},{"id":224237,"name":"D-reizen Amsterdam","address":"Joop van Weezelhof 35, Amsterdam, Netherlands","category":"accommodation","location":"Amsterdam","lat":52.380652,"lng":4.82267,"details":"http:\/\/tour-pedia.org\/api\/getPlaceDetails?id=224237"},{"id":224238,"name":"Changyun Shi Holding II B.V.","address":"Bos en Lommerplein 154-B-C, Amsterdam, Netherlands","category":"accommodation","location":"Amsterdam","lat":52.37808,"lng":4.845875,"details":"http:\/\/tour-pedia.org\/api\/getPlaceDetails?id=224238"},{"id":224239,"name":"10minutes2center","address":"Baetostraat 9 \/H, Amsterdam, Netherlands","category":"accommodation","location":"Amsterdam","lat":52.379089,"lng":4.848406,"numReviews":1,"reviews":"http:\/\/tour-pedia.org\/api\/getReviewsByPlaceId?placeId=224239","polarity":10,"details":"http:\/\/tour-pedia.org\/api\/getPlaceDetails?id=224239"},{"id":224240,"name":"10 minutes 2 center","address":"Landlust, Amsterdam, Netherlands","category":"accommodation","location":"Amsterdam","lat":52.379055,"lng":4.848302,"details":"http:\/\/tour-pedia.org\/api\/getPlaceDetails?id=224240"},{"id":224241,"name":"Residence Callenbach","address":"Harry Koningsbergerstraat 156, Amsterdam, Netherlands","category":"accommodation","location":"Amsterdam","lat":52.384074,"lng":4.837972,"details":"http:\/\/tour-pedia.org\/api\/getPlaceDetails?id=224241"},{"id":224242,"name":"Bellevue Hotel","address":"Martelaarsgracht 10, Amsterdam, Netherlands","category":"accommodation","location":"Amsterdam","lat":52.3781,"lng":4.896757,"numReviews":4,"reviews":"http:\/\/tour-pedia.org\/api\/getReviewsByPlaceId?placeId=224242","polarity":7,"details":"http:\/\/tour-pedia.org\/api\/getPlaceDetails?id=224242"},{"id":224243,"name":"Aivengo Youth Hostel","address":"Spuistraat 6, Amsterdam, Netherlands","category":"accommodation","location":"Amsterdam","lat":52.377248,"lng":4.893985,"numReviews":5,"reviews":"http:\/\/tour-pedia.org\/api\/getReviewsByPlaceId?placeId=224243","polarity":9,"details":"http:\/\/tour-pedia.org\/api\/getPlaceDetails?id=224243"},{"id":224244,"name":"Maes B&B","address":"Herenstraat 26, Amsterdam, Netherlands","category":"accommodation","location":"Amsterdam","lat":52.377276,"lng":4.888708,"numReviews":4,"reviews":"http:\/\/tour-pedia.org\/api\/getReviewsByPlaceId?placeId=224244","polarity":9,"details":"http:\/\/tour-pedia.org\/api\/getPlaceDetails?id=224244"},{"id":224245,"name":"My Home","address":"Haarlemmerstraat 82, Amsterdam, Nederland","category":"accommodation","location":"Amsterdam","lat":52.380465,"lng":4.891477,"numReviews":5,"reviews":"http:\/\/tour-pedia.org\/api\/getReviewsByPlaceId?placeId=224245","polarity":7,"details":"http:\/\/tour-pedia.org\/api\/getPlaceDetails?id=224245"},{"id":224246,"name":"The Blue Sheep","address":"Korsjespoortsteeg 3, Amsterdam, Netherlands","category":"accommodation","location":"Amsterdam","lat":52.377162,"lng":4.891599,"numReviews":2,"reviews":"http:\/\/tour-pedia.org\/api\/getReviewsByPlaceId?placeId=224246","polarity":10,"details":"http:\/\/tour-pedia.org\/api\/getPlaceDetails?id=224246"},{"id":224247,"name":"Claes Claesz Self Catering Apartment","address":"Egelantiersstraat 5, Amsterdam, Netherlands","category":"accommodation","location":"Amsterdam","lat":52.377116,"lng":4.884638,"details":"http:\/\/tour-pedia.org\/api\/getPlaceDetails?id=224247"},{"id":224248,"name":"Stargate Amsterdam","address":"Hekelveld 7, Amsterdam, Netherlands","category":"accommodation","location":"Amsterdam","lat":52.377757,"lng":4.89541,"numReviews":1,"reviews":"http:\/\/tour-pedia.org\/api\/getReviewsByPlaceId?placeId=224248","polarity":8,"details":"http:\/\/tour-pedia.org\/api\/getPlaceDetails?id=224248"},{"id":224249,"name":"Hapimag Stadtresidenz Amsterdam","address":"Singel 19, Amsterdam, Netherlands","category":"accommodation","location":"Amsterdam","lat":52.377617,"lng":4.893135,"details":"http:\/\/tour-pedia.org\/api\/getPlaceDetails?id=224249"},{"id":224250,"name":"ARK16","address":"Lijnbaansgracht 16, Amsterdam, Netherlands","category":"accommodation","location":"Amsterdam","lat":52.38189,"lng":4.881737,"details":"http:\/\/tour-pedia.org\/api\/getPlaceDetails?id=224250"},{"id":224252,"name":"Amsterdam Inn B&B","address":"Haarlemmerstraat 79B, Amsterdam, Netherlands","category":"accommodation","location":"Amsterdam","lat":52.380384,"lng":4.891569,"details":"http:\/\/tour-pedia.org\/api\/getPlaceDetails?id=224252"},{"id":224253,"name":"Hotel Groenendael","address":"Nieuwendijk 15, Amsterdam, Netherlands","category":"accommodation","location":"Amsterdam","lat":52.378604,"lng":4.895097,"details":"http:\/\/tour-pedia.org\/api\/getPlaceDetails?id=224253"},{"id":224254,"name":"BedonBoard","address":"Van Bossepad 4, Amsterdam, Netherlands","category":"accommodation","location":"Amsterdam","lat":52.380391,"lng":4.868502,"details":"http:\/\/tour-pedia.org\/api\/getPlaceDetails?id=224254"},{"id":224255,"name":"Bethany B&B","address":"Haarlemmerdijk 52, Amsterdam, Netherlands","category":"accommodation","location":"Amsterdam","lat":52.382406,"lng":4.887968,"numReviews":1,"reviews":"http:\/\/tour-pedia.org\/api\/getReviewsByPlaceId?placeId=224255","polarity":9,"details":"http:\/\/tour-pedia.org\/api\/getPlaceDetails?id=224255"},{"id":224256,"name":"Business Class Apartment","address":"Haarlemmer Houttuinen 39, Amsterdam, Netherlands","category":"accommodation","location":"Amsterdam","lat":52.3812,"lng":4.891303,"details":"http:\/\/tour-pedia.org\/api\/getPlaceDetails?id=224256"},{"id":224257,"name":"Brouwer's Studio","address":"Brouwersgracht 178, Amsterdam, Netherlands","category":"accommodation","location":"Amsterdam","lat":52.381093,"lng":4.88789,"details":"http:\/\/tour-pedia.org\/api\/getPlaceDetails?id=224257"},{"id":224258,"name":"Johanas B & B","address":"Van Hogendorpplein 62, Amsterdam, Netherlands","category":"accommodation","location":"Amsterdam","lat":52.384605,"lng":4.876476,"details":"http:\/\/tour-pedia.org\/api\/getPlaceDetails?id=224258"},{"id":224259,"name":"DB's B&B","address":"Lindenstraat 85, Amsterdam, Netherlands","category":"accommodation","location":"Amsterdam","lat":52.379324,"lng":4.883519,"details":"http:\/\/tour-pedia.org\/api\/getPlaceDetails?id=224259"},{"id":224260,"name":"Chic&Basic Amsterdam","address":"Grachtengordel-West, Amsterdam, Netherlands","category":"accommodation","location":"Amsterdam","lat":52.37886,"lng":4.89209,"details":"http:\/\/tour-pedia.org\/api\/getPlaceDetails?id=224260"},{"id":224261,"name":"Canal City Bed & Breakfast","address":"Roomolenstraat 8, Amsterdam, Netherlands","category":"accommodation","location":"Amsterdam","lat":52.378314,"lng":4.89219,"details":"http:\/\/tour-pedia.org\/api\/getPlaceDetails?id=224261"},{"id":224262,"name":"Hotel Jimmy","address":"Martelaarsgracht 15-Boven, Amsterdam, Netherlands","category":"accommodation","location":"Amsterdam","lat":52.377774,"lng":4.896266,"numReviews":1,"reviews":"http:\/\/tour-pedia.org\/api\/getReviewsByPlaceId?placeId=224262","polarity":0,"details":"http:\/\/tour-pedia.org\/api\/getPlaceDetails?id=224262"},{"id":224263,"name":"Het Wittenbed\/Quay White","address":"De Wittenkade 269, Amsterdam, Netherlands","category":"accommodation","location":"Amsterdam","lat":52.381816,"lng":4.875514,"details":"http:\/\/tour-pedia.org\/api\/getPlaceDetails?id=224263"},{"id":224264,"name":"Shelter Youth Hostel Ministry","address":"Willemsstraat 33, Amsterdam, Netherlands","category":"accommodation","location":"Amsterdam","lat":52.381293,"lng":4.885248,"details":"http:\/\/tour-pedia.org\/api\/getPlaceDetails?id=224264"},{"id":224265,"name":"Boogaard's Bed and Breakfast","address":"Langestraat 34, Amsterdam, Netherlands","category":"accommodation","location":"Amsterdam","lat":52.378254,"lng":4.892019,"details":"http:\/\/tour-pedia.org\/api\/getPlaceDetails?id=224265"},{"id":224266,"name":"Calendula Goldbloom's Bed and Breakfast","address":"Jordaan, Amsterdam, Netherlands","category":"accommodation","location":"Amsterdam","lat":52.38047,"lng":4.88226,"details":"http:\/\/tour-pedia.org\/api\/getPlaceDetails?id=224266"},{"id":224267,"name":"Brouwersgracht Apartments","address":"Brouwersgracht 227, Amsterdam, Netherlands","category":"accommodation","location":"Amsterdam","lat":52.382487,"lng":4.884435,"details":"http:\/\/tour-pedia.org\/api\/getPlaceDetails?id=224267"},{"id":224268,"name":"amsterdam-bedandbreakfast.nl","address":"Brouwersgracht 8, Amsterdam, Netherlands","category":"accommodation","location":"Amsterdam","lat":52.379091,"lng":4.893422,"details":"http:\/\/tour-pedia.org\/api\/getPlaceDetails?id=224268"},{"id":224269,"name":"Amsterdam Centre B&B","address":"Buiten Brouwersstraat 16, Amsterdam, Netherlands","category":"accommodation","location":"Amsterdam","lat":52.380848,"lng":4.891218,"details":"http:\/\/tour-pedia.org\/api\/getPlaceDetails?id=224269"},{"id":224271,"name":"Amsterdam Canal House","address":"Palmgracht 65, Amsterdam, Netherlands","category":"accommodation","location":"Amsterdam","lat":52.381859,"lng":4.882878,"details":"http:\/\/tour-pedia.org\/api\/getPlaceDetails?id=224271"},{"id":224272,"name":"Plant","address":"Prins Hendrikkade 15, Amsterdam, Netherlands","category":"accommodation","location":"Amsterdam","lat":52.378799,"lng":4.895847,"numReviews":2,"reviews":"http:\/\/tour-pedia.org\/api\/getReviewsByPlaceId?placeId=224272","polarity":0,"details":"http:\/\/tour-pedia.org\/api\/getPlaceDetails?id=224272"},{"id":224273,"name":"Jordaan Beds","address":"Binnen Oranjestraat 19, Amsterdam, Netherlands","category":"accommodation","location":"Amsterdam","lat":52.381909,"lng":4.886717,"numReviews":1,"reviews":"http:\/\/tour-pedia.org\/api\/getReviewsByPlaceId?placeId=224273","polarity":2,"details":"http:\/\/tour-pedia.org\/api\/getPlaceDetails?id=224273"},{"id":224274,"name":"Houseboat Santa Cruz","address":"Mouthaansteeg, Amsterdam, Netherlands","category":"accommodation","location":"Amsterdam","lat":52.382266,"lng":4.885676,"details":"http:\/\/tour-pedia.org\/api\/getPlaceDetails?id=224274"},{"id":224275,"name":"B28","address":"Herengracht 28, Amsterdam, Netherlands","category":"accommodation","location":"Amsterdam","lat":52.378415,"lng":4.890897,"details":"http:\/\/tour-pedia.org\/api\/getPlaceDetails?id=224275"},{"id":224276,"name":"Herenstraat Apartments","address":"Herenstraat 26, Amsterdam, Netherlands","category":"accommodation","location":"Amsterdam","lat":52.377275,"lng":4.888711,"details":"http:\/\/tour-pedia.org\/api\/getPlaceDetails?id=224276"},{"id":224277,"name":"Nolen \/ F M","address":"Violettenstraat 4, Amsterdam, Netherlands","category":"accommodation","location":"Amsterdam","lat":52.378557,"lng":4.8849,"details":"http:\/\/tour-pedia.org\/api\/getPlaceDetails?id=224277"},{"id":224278,"name":"Ark Noa's Hostel","address":"Westerdok 11, Amsterdam, Netherlands","category":"accommodation","location":"Amsterdam","lat":52.383264,"lng":4.891218,"details":"http:\/\/tour-pedia.org\/api\/getPlaceDetails?id=224278"},{"id":224279,"name":"MarksAmsterdam","address":"Van Limburg Stirumstraat, Amsterdam, Netherlands","category":"accommodation","location":"Amsterdam","lat":52.383327,"lng":4.876828,"details":"http:\/\/tour-pedia.org\/api\/getPlaceDetails?id=224279"},{"id":224280,"name":"Apartments Houseboats Amsterdam","address":"Keizersgracht, Amsterdam, Netherlands","category":"accommodation","location":"Amsterdam","lat":52.378103,"lng":4.888605,"details":"http:\/\/tour-pedia.org\/api\/getPlaceDetails?id=224280"},{"id":224281,"name":"Lindenstay","address":"Lindengracht 152, Amsterdam, Netherlands","category":"accommodation","location":"Amsterdam","lat":52.380329,"lng":4.884491,"details":"http:\/\/tour-pedia.org\/api\/getPlaceDetails?id=224281"},{"id":224282,"name":"Cornelis \/ M","address":"Haarlemmerstraat 7 \/2, Amsterdam, Netherlands","category":"accommodation","location":"Amsterdam","lat":52.379357,"lng":4.893875,"details":"http:\/\/tour-pedia.org\/api\/getPlaceDetails?id=224282"},{"id":224283,"name":"Suite 15 Hotel Exploitatie BV","address":"Keizersgracht 15 17, Amsterdam, Netherlands","category":"accommodation","location":"Amsterdam","lat":52.379131,"lng":4.889812,"details":"http:\/\/tour-pedia.org\/api\/getPlaceDetails?id=224283"},{"id":224284,"name":"Massini Management","address":"Buiten Brouwersstraat 16-H, Amsterdam, Netherlands","category":"accommodation","location":"Amsterdam","lat":52.380848,"lng":4.891218,"details":"http:\/\/tour-pedia.org\/api\/getPlaceDetails?id=224284"},{"id":224285,"name":"De Steeg","address":"Grachtengordel-West, Amsterdam, Netherlands","category":"accommodation","location":"Amsterdam","lat":52.37741,"lng":4.891097,"details":"http:\/\/tour-pedia.org\/api\/getPlaceDetails?id=224285"},{"id":224286,"name":"Sjudoransj B&B","address":"Goudsbloemstraat 91, Amsterdam, Netherlands","category":"accommodation","location":"Amsterdam","lat":52.380708,"lng":4.884524,"details":"http:\/\/tour-pedia.org\/api\/getPlaceDetails?id=224286"},{"id":224287,"name":"Nohotel","address":"Jordaan, Amsterdam, Netherlands","category":"accommodation","location":"Amsterdam","lat":52.38058,"lng":4.88386,"details":"http:\/\/tour-pedia.org\/api\/getPlaceDetails?id=224287"},{"id":224288,"name":"EricBnB Amsterdam","address":"Tichelstraat 26, Amsterdam, Netherlands","category":"accommodation","location":"Amsterdam","lat":52.378742,"lng":4.880865,"details":"http:\/\/tour-pedia.org\/api\/getPlaceDetails?id=224288"},{"id":224289,"name":"Rembrandtparkhouse","address":"Orteliuskade 57, Amsterdam, Netherlands","category":"accommodation","location":"Amsterdam","lat":52.368616,"lng":4.849159,"details":"http:\/\/tour-pedia.org\/api\/getPlaceDetails?id=224289"},{"id":224290,"name":"Hotel Buiten","address":"Th.J. Lammerslaan 1, Amsterdam, Netherlands","category":"accommodation","location":"Amsterdam","lat":52.370831,"lng":4.821196,"details":"http:\/\/tour-pedia.org\/api\/getPlaceDetails?id=224290"},{"id":224291,"name":"Global Transfers Hotel","address":"Witte de Withstraat 123, Amsterdam, Netherlands","category":"accommodation","location":"Amsterdam","lat":52.370085,"lng":4.85898,"details":"http:\/\/tour-pedia.org\/api\/getPlaceDetails?id=224291"},{"id":224292,"name":"City Living B.V.","address":"Jan van Galenstraat 335, Amsterdam, Netherlands","category":"accommodation","location":"Amsterdam","lat":52.371916,"lng":4.836391,"details":"http:\/\/tour-pedia.org\/api\/getPlaceDetails?id=224292"},{"id":224293,"name":"Sfinx Apartments","address":"De Krommerdt, Amsterdam, Netherlands","category":"accommodation","location":"Amsterdam","lat":52.37175,"lng":4.85819,"details":"http:\/\/tour-pedia.org\/api\/getPlaceDetails?id=224293"},{"id":224294,"name":"Skotel Amsterdam","address":"Jan Evertsenstraat 171, Amsterdam, Netherlands","category":"accommodation","location":"Amsterdam","lat":52.369312,"lng":4.846746,"details":"http:\/\/tour-pedia.org\/api\/getPlaceDetails?id=224294"},{"id":224295,"name":"Amphora Bed and Breakfast","address":"Lijnbaansgracht 91, Amsterdam, Netherlands","category":"accommodation","location":"Amsterdam","lat":52.3749,"lng":4.87737,"details":"http:\/\/tour-pedia.org\/api\/getPlaceDetails?id=224295"},{"id":224296,"name":"Jordaanapartment","address":"Nieuwe Leliestraat 129, Amsterdam, Netherlands","category":"accommodation","location":"Amsterdam","lat":52.375014,"lng":4.8794,"details":"http:\/\/tour-pedia.org\/api\/getPlaceDetails?id=224296"},{"id":224297,"name":"All Inn The Family B&B","address":"Tweede Egelantiersdwarsstraat 10, Amsterdam, Netherlands","category":"accommodation","location":"Amsterdam","lat":52.376762,"lng":4.88205,"numReviews":2,"reviews":"http:\/\/tour-pedia.org\/api\/getReviewsByPlaceId?placeId=224297","polarity":8,"details":"http:\/\/tour-pedia.org\/api\/getPlaceDetails?id=224297"},{"id":224298,"name":"The Garden Bed & Breakfast Amsterdam","address":"Egelantiersgracht 360, Amsterdam, Netherlands","category":"accommodation","location":"Amsterdam","lat":52.376071,"lng":4.881234,"numReviews":1,"reviews":"http:\/\/tour-pedia.org\/api\/getReviewsByPlaceId?placeId=224298","polarity":9,"details":"http:\/\/tour-pedia.org\/api\/getPlaceDetails?id=224298"},{"id":224299,"name":"De Prinsenkamer","address":"Prinsengracht 106, Amsterdam, Netherlands","category":"accommodation","location":"Amsterdam","lat":52.376885,"lng":4.884739,"details":"http:\/\/tour-pedia.org\/api\/getPlaceDetails?id=224299"},{"id":224300,"name":"Frankenhuis \/ E A","address":"Tweede Egelantiersdwarsstraat 10, Amsterdam, Netherlands","category":"accommodation","location":"Amsterdam","lat":52.376577,"lng":4.88216,"details":"http:\/\/tour-pedia.org\/api\/getPlaceDetails?id=224300"},{"id":224301,"name":"Bob's Youth Hostel","address":"Burgwallen-Nieuwe Zijde, Amsterdam, Netherlands","category":"accommodation","location":"Amsterdam","lat":52.37571,"lng":4.89254,"numReviews":5,"reviews":"http:\/\/tour-pedia.org\/api\/getReviewsByPlaceId?placeId=224301","polarity":6,"details":"http:\/\/tour-pedia.org\/api\/getPlaceDetails?id=224301"},{"id":224302,"name":"Youth Hostel Meeting Point","address":"De Wallen, Amsterdam, Netherlands","category":"accommodation","location":"Amsterdam","lat":52.3761,"lng":4.8991,"numReviews":5,"reviews":"http:\/\/tour-pedia.org\/api\/getReviewsByPlaceId?placeId=224302","polarity":7,"details":"http:\/\/tour-pedia.org\/api\/getPlaceDetails?id=224302"},{"id":224303,"name":"Hotel Brouwer","address":"Singel 83, Amsterdam, Netherlands","category":"accommodation","location":"Amsterdam","lat":52.376227,"lng":4.891625,"details":"http:\/\/tour-pedia.org\/api\/getPlaceDetails?id=224303"},{"id":224304,"name":"Van Gelder","address":"Damrak 34 I, Amsterdam, Netherlands","category":"accommodation","location":"Amsterdam","lat":52.376017,"lng":4.896488,"numReviews":5,"reviews":"http:\/\/tour-pedia.org\/api\/getReviewsByPlaceId?placeId=224304","polarity":5,"details":"http:\/\/tour-pedia.org\/api\/getPlaceDetails?id=224304"},{"id":224305,"name":"Hotel Brian","address":"Burgwallen-Nieuwe Zijde, Amsterdam, Netherlands","category":"accommodation","location":"Amsterdam","lat":52.37637,"lng":4.89182,"numReviews":5,"reviews":"http:\/\/tour-pedia.org\/api\/getReviewsByPlaceId?placeId=224305","polarity":7,"details":"http:\/\/tour-pedia.org\/api\/getPlaceDetails?id=224305"},{"id":224306,"name":"Amsterdam Guest House","address":"Haringpakkerssteeg 8, Amsterdam, Netherlands","category":"accommodation","location":"Amsterdam","lat":52.376933,"lng":4.897184,"details":"http:\/\/tour-pedia.org\/api\/getPlaceDetails?id=224306"},{"id":224307,"name":"Easy Rooms","address":"Prins Hendrikkade 48, Amsterdam, Netherlands","category":"accommodation","location":"Amsterdam","lat":52.376516,"lng":4.899138,"details":"http:\/\/tour-pedia.org\/api\/getPlaceDetails?id=224307"},{"id":224308,"name":"Home & Away Apartments","address":"Korte Lijnbaanssteeg 1, Amsterdam, Netherlands","category":"accommodation","location":"Amsterdam","lat":52.375896,"lng":4.892522,"details":"http:\/\/tour-pedia.org\/api\/getPlaceDetails?id=224308"},{"id":224309,"name":"Eve's Guesthouse","address":"Spuistraat 44, Amsterdam, Netherlands","category":"accommodation","location":"Amsterdam","lat":52.37637,"lng":4.892618,"details":"http:\/\/tour-pedia.org\/api\/getPlaceDetails?id=224309"},{"id":224310,"name":"Centre Hotels","address":"Nieuwezijds Voorburgwal 96, Amsterdam, Netherlands","category":"accommodation","location":"Amsterdam","lat":52.375699,"lng":4.892471,"details":"http:\/\/tour-pedia.org\/api\/getPlaceDetails?id=224310"},{"id":224311,"name":"Amsterdam Centre Inn B And B","address":"Spuistraat 61, Amsterdam, Netherlands","category":"accommodation","location":"Amsterdam","lat":52.375771,"lng":4.892111,"details":"http:\/\/tour-pedia.org\/api\/getPlaceDetails?id=224311"},{"id":224312,"name":"VelvetAmsterdam Bed & Breakfast City Centre","address":"Oudezijds Voorburgwal 10, Amsterdam, Netherlands","category":"accommodation","location":"Amsterdam","lat":52.375623,"lng":4.899969,"details":"http:\/\/tour-pedia.org\/api\/getPlaceDetails?id=224312"},{"id":224313,"name":"Amsterdamhouse Bed and Breakfast","address":"Dirk van Hasseltssteeg 54, Amsterdam, Netherlands","category":"accommodation","location":"Amsterdam","lat":52.375794,"lng":4.893668,"details":"http:\/\/tour-pedia.org\/api\/getPlaceDetails?id=224313"},{"id":224314,"name":"Farah-guesthouse Amsterdam","address":"Spuistraat 61, Amsterdam, Netherlands","category":"accommodation","location":"Amsterdam","lat":52.375771,"lng":4.892111,"details":"http:\/\/tour-pedia.org\/api\/getPlaceDetails?id=224314"},{"id":224315,"name":"Villa Catedralus","address":"Singel 90, Amsterdam, Netherlands","category":"accommodation","location":"Amsterdam","lat":52.376965,"lng":4.891568,"details":"http:\/\/tour-pedia.org\/api\/getPlaceDetails?id=224315"},{"id":224316,"name":"Blauwburg Apartment Amsterdam","address":"Blauwburgwal 14, Amsterdam, Netherlands","category":"accommodation","location":"Amsterdam","lat":52.376778,"lng":4.89054,"details":"http:\/\/tour-pedia.org\/api\/getPlaceDetails?id=224316"},{"id":224317,"name":"Olofskapel Monumenten B.V.","address":"Prins Hendrikkade 72, Amsterdam, Netherlands","category":"accommodation","location":"Amsterdam","lat":52.376386,"lng":4.900097,"details":"http:\/\/tour-pedia.org\/api\/getPlaceDetails?id=224317"},{"id":224318,"name":"Op-Holding B.V.","address":"Nieuwezijds Voorburgwal 50, Amsterdam, Netherlands","category":"accommodation","location":"Amsterdam","lat":52.376573,"lng":4.893757,"details":"http:\/\/tour-pedia.org\/api\/getPlaceDetails?id=224318"},{"id":224319,"name":"Boegem \/ W H","address":"Singel 83, Amsterdam, Netherlands","category":"accommodation","location":"Amsterdam","lat":52.376257,"lng":4.89166,"details":"http:\/\/tour-pedia.org\/api\/getPlaceDetails?id=224319"},{"id":224320,"name":"Hendriks \/ K A","address":"Prins Hendrikkade 48 \/K, Amsterdam, Netherlands","category":"accommodation","location":"Amsterdam","lat":52.376516,"lng":4.899138,"details":"http:\/\/tour-pedia.org\/api\/getPlaceDetails?id=224320"},{"id":224321,"name":"Shang Jia B.V.","address":"Nieuwezijds Voorburgwal 33, Amsterdam, Netherlands","category":"accommodation","location":"Amsterdam","lat":52.376169,"lng":4.893817,"details":"http:\/\/tour-pedia.org\/api\/getPlaceDetails?id=224321"},{"id":224322,"name":"Veletamsterdam","address":"Oudezijds Voorburgwal 10, Amsterdam, Netherlands","category":"accommodation","location":"Amsterdam","lat":52.375623,"lng":4.899969,"details":"http:\/\/tour-pedia.org\/api\/getPlaceDetails?id=224322"},{"id":224323,"name":"Bilderdijk Apartments","address":"Bilderdijkstraat 90, Amsterdam, Netherlands","category":"accommodation","location":"Amsterdam","lat":52.369496,"lng":4.870407,"details":"http:\/\/tour-pedia.org\/api\/getPlaceDetails?id=224323"},{"id":224324,"name":"CanalHome","address":"Nassaukade 359, Amsterdam, Netherlands","category":"accommodation","location":"Amsterdam","lat":52.366238,"lng":4.877453,"details":"http:\/\/tour-pedia.org\/api\/getPlaceDetails?id=224324"},{"id":224325,"name":"Guesthouse Kerkstraat","address":"Wenslauerstraat 40, Amsterdam, Netherlands","category":"accommodation","location":"Amsterdam","lat":52.36764,"lng":4.865701,"details":"http:\/\/tour-pedia.org\/api\/getPlaceDetails?id=224325"},{"id":224326,"name":"On the Water Studio","address":"Jacob van Lennepkade 2, Amsterdam, Netherlands","category":"accommodation","location":"Amsterdam","lat":52.366807,"lng":4.876594,"details":"http:\/\/tour-pedia.org\/api\/getPlaceDetails?id=224326"},{"id":224327,"name":"The Townhouse","address":"Jordaan, Amsterdam, Netherlands","category":"accommodation","location":"Amsterdam","lat":52.37313,"lng":4.87832,"details":"http:\/\/tour-pedia.org\/api\/getPlaceDetails?id=224327"},{"id":224328,"name":"B&B Slapen in Amsterdam","address":"Jacob van Lennepstraat 14, Amsterdam, Netherlands","category":"accommodation","location":"Amsterdam","lat":52.36715,"lng":4.876071,"details":"http:\/\/tour-pedia.org\/api\/getPlaceDetails?id=224328"},{"id":224329,"name":"Bed and Breakfast Accommodations, Holland","address":"Bestev\u00e2erstraat 3, Amsterdam, Netherlands","category":"accommodation","location":"Amsterdam","lat":52.37242,"lng":4.860233,"details":"http:\/\/tour-pedia.org\/api\/getPlaceDetails?id=224329"},{"id":224330,"name":"Goodnight Amsterdam","address":"Jacob van Lennepstraat 14, Amsterdam, Netherlands","category":"accommodation","location":"Amsterdam","lat":52.367152,"lng":4.876078,"details":"http:\/\/tour-pedia.org\/api\/getPlaceDetails?id=224330"},{"id":224331,"name":"Amsterdam Boutique Bed and Breakfast","address":"Geuzenstraat 86, Amsterdam, Netherlands","category":"accommodation","location":"Amsterdam","lat":52.372814,"lng":4.86472,"details":"http:\/\/tour-pedia.org\/api\/getPlaceDetails?id=224331"},{"id":224332,"name":"Andre Nankman","address":"Jacob van Lennepstraat 14 1, Amsterdam, Netherlands","category":"accommodation","location":"Amsterdam","lat":52.367152,"lng":4.876078,"details":"http:\/\/tour-pedia.org\/api\/getPlaceDetails?id=224332"},{"id":224333,"name":"Jacob van Wassenaar Obdamstraat 36 Amsterdam","address":"De Krommerdt, Amsterdam, Netherlands","category":"accommodation","location":"Amsterdam","lat":52.370018,"lng":4.861665,"details":"http:\/\/tour-pedia.org\/api\/getPlaceDetails?id=224333"},{"id":224335,"name":"Hotel Belga","address":"Grachtengordel-West, Amsterdam, Netherlands","category":"accommodation","location":"Amsterdam","lat":52.37235,"lng":4.88652,"details":"http:\/\/tour-pedia.org\/api\/getPlaceDetails?id=224335"},{"id":224336,"name":"Sunhead B&deliciousB","address":"Grachtengordel-West, Amsterdam, Netherlands","category":"accommodation","location":"Amsterdam","lat":52.37465,"lng":4.88747,"details":"http:\/\/tour-pedia.org\/api\/getPlaceDetails?id=224336"},{"id":224337,"name":"Bees Studio","address":"Leliegracht 30-B, Amsterdam, Netherlands","category":"accommodation","location":"Amsterdam","lat":52.37529,"lng":4.886694,"details":"http:\/\/tour-pedia.org\/api\/getPlaceDetails?id=224337"},{"id":224338,"name":"Pina Apartments","address":"Keizersgracht 233, Amsterdam, Netherlands","category":"accommodation","location":"Amsterdam","lat":52.372296,"lng":4.885238,"details":"http:\/\/tour-pedia.org\/api\/getPlaceDetails?id=224338"},{"id":224339,"name":"Jackie O Bed & Breakfast","address":"Bloemgracht 73, Amsterdam, Netherlands","category":"accommodation","location":"Amsterdam","lat":52.374486,"lng":4.880355,"details":"http:\/\/tour-pedia.org\/api\/getPlaceDetails?id=224339"},{"id":224340,"name":"House of Amsterdam","address":"Herengracht 168, Amsterdam, Netherlands","category":"accommodation","location":"Amsterdam","lat":52.374174,"lng":4.887012,"details":"http:\/\/tour-pedia.org\/api\/getPlaceDetails?id=224340"},{"id":224341,"name":"Short Stay Triplehouse","address":"Rozengracht 9, Amsterdam, Netherlands","category":"accommodation","location":"Amsterdam","lat":52.373702,"lng":4.882403,"details":"http:\/\/tour-pedia.org\/api\/getPlaceDetails?id=224341"},{"id":224342,"name":"Metropolitan Apartment","address":"Foeliedwarstraat 56, Amsterdam, Netherlands","category":"accommodation","location":"Amsterdam","lat":52.37488,"lng":4.881101,"details":"http:\/\/tour-pedia.org\/api\/getPlaceDetails?id=224342"},{"id":224343,"name":"Art and Climbing","address":"Rozenstraat 55-1, Amsterdam, Netherlands","category":"accommodation","location":"Amsterdam","lat":52.372806,"lng":4.881293,"details":"http:\/\/tour-pedia.org\/api\/getPlaceDetails?id=224343"},{"id":224344,"name":"Xaverius Exploitatie BV","address":"Herengracht 135 137, Amsterdam, Netherlands","category":"accommodation","location":"Amsterdam","lat":52.375505,"lng":4.889018,"details":"http:\/\/tour-pedia.org\/api\/getPlaceDetails?id=224344"},{"id":224345,"name":"Desan Marktonderzoek Holding B.V.","address":"Raadhuisstraat 50, Amsterdam, Netherlands","category":"accommodation","location":"Amsterdam","lat":52.373947,"lng":4.885857,"details":"http:\/\/tour-pedia.org\/api\/getPlaceDetails?id=224345"},{"id":224346,"name":"Poppenhuis-Jordaan","address":"Tweede Leliedwarsstraat 16, Amsterdam, Netherlands","category":"accommodation","location":"Amsterdam","lat":52.375451,"lng":4.88072,"details":"http:\/\/tour-pedia.org\/api\/getPlaceDetails?id=224346"},{"id":224347,"name":"Lelie Apartment","address":"Leliegracht 34HS, Amsterdam, Netherlands","category":"accommodation","location":"Amsterdam","lat":52.37533,"lng":4.886577,"details":"http:\/\/tour-pedia.org\/api\/getPlaceDetails?id=224347"},{"id":224348,"name":"Ouroubouros","address":"Rozengracht 37, Amsterdam, Netherlands","category":"accommodation","location":"Amsterdam","lat":52.373489,"lng":4.881569,"details":"http:\/\/tour-pedia.org\/api\/getPlaceDetails?id=224348"},{"id":224349,"name":"Hotel Maatschappij Oud-Amsterdam B.V.","address":"Prinsengracht 331, Amsterdam, Netherlands","category":"accommodation","location":"Amsterdam","lat":52.373035,"lng":4.883306,"details":"http:\/\/tour-pedia.org\/api\/getPlaceDetails?id=224349"},{"id":224350,"name":"Rooms B&B Amsterdam","address":"Hartenstraat 7, Amsterdam, Netherlands","category":"accommodation","location":"Amsterdam","lat":52.372268,"lng":4.886348,"details":"http:\/\/tour-pedia.org\/api\/getPlaceDetails?id=224350"},{"id":224351,"name":"el Saies \/ M I A","address":"Raadhuisstraat 43, Amsterdam, Netherlands","category":"accommodation","location":"Amsterdam","lat":52.373657,"lng":4.885901,"details":"http:\/\/tour-pedia.org\/api\/getPlaceDetails?id=224351"},{"id":224352,"name":"VIDAVILLA","address":"Bloemgracht 63, Amsterdam, Netherlands","category":"accommodation","location":"Amsterdam","lat":52.374583,"lng":4.880816,"details":"http:\/\/tour-pedia.org\/api\/getPlaceDetails?id=224352"},{"id":224353,"name":"Hostel Cosmos Amsterdam","address":"Nieuwe Nieuwstraat 17, Amsterdam, Netherlands","category":"accommodation","location":"Amsterdam","lat":52.37524,"lng":4.89356,"details":"http:\/\/tour-pedia.org\/api\/getPlaceDetails?id=224353"},{"id":224354,"name":"Travel Hotel","address":"Beursstraat 23, Amsterdam, Netherlands","category":"accommodation","location":"Amsterdam","lat":52.374876,"lng":4.896702,"details":"http:\/\/tour-pedia.org\/api\/getPlaceDetails?id=224354"},{"id":224355,"name":"Durty Nellys Inn","address":"Warmoesstraat 117, Amsterdam, Netherlands","category":"accommodation","location":"Amsterdam","lat":52.374113,"lng":4.896466,"details":"http:\/\/tour-pedia.org\/api\/getPlaceDetails?id=224355"},{"id":224356,"name":"Hotel Beursstraat","address":"De Wallen, Amsterdam, Netherlands","category":"accommodation","location":"Amsterdam","lat":52.37519,"lng":4.8972,"numReviews":5,"reviews":"http:\/\/tour-pedia.org\/api\/getReviewsByPlaceId?placeId=224356","polarity":5,"details":"http:\/\/tour-pedia.org\/api\/getPlaceDetails?id=224356"},{"id":224357,"name":"Amsterdam Central Bed and Breakfast","address":"Oudebrugsteeg 6, Amsterdam, Netherlands","category":"accommodation","location":"Amsterdam","lat":52.375243,"lng":4.897754,"numReviews":1,"reviews":"http:\/\/tour-pedia.org\/api\/getReviewsByPlaceId?placeId=224357","polarity":5,"details":"http:\/\/tour-pedia.org\/api\/getPlaceDetails?id=224357"},{"id":224358,"name":"Hotel Anco","address":"Oudezijds Voorburgwal 55, Amsterdam, Netherlands","category":"accommodation","location":"Amsterdam","lat":52.374283,"lng":4.899211,"numReviews":5,"reviews":"http:\/\/tour-pedia.org\/api\/getReviewsByPlaceId?placeId=224358","polarity":9,"details":"http:\/\/tour-pedia.org\/api\/getPlaceDetails?id=224358"},{"id":224360,"name":"Hostel Utopia","address":"Nieuwezijds Voorburgwal 132, Amsterdam, Netherlands","category":"accommodation","location":"Amsterdam","lat":52.375096,"lng":4.891577,"numReviews":5,"reviews":"http:\/\/tour-pedia.org\/api\/getReviewsByPlaceId?placeId=224360","polarity":5,"details":"http:\/\/tour-pedia.org\/api\/getPlaceDetails?id=224360"},{"id":224361,"name":"Hotel Mevlana","address":"Burgwallen-Nieuwe Zijde, Amsterdam, Netherlands","category":"accommodation","location":"Amsterdam","lat":52.37449,"lng":4.89117,"numReviews":3,"reviews":"http:\/\/tour-pedia.org\/api\/getReviewsByPlaceId?placeId=224361","polarity":10,"details":"http:\/\/tour-pedia.org\/api\/getPlaceDetails?id=224361"},{"id":224362,"name":"Funky Chickin","address":"Spuistraat 90, Amsterdam, Netherlands","category":"accommodation","location":"Amsterdam","lat":52.375294,"lng":4.89119,"numReviews":2,"reviews":"http:\/\/tour-pedia.org\/api\/getReviewsByPlaceId?placeId=224362","polarity":9,"details":"http:\/\/tour-pedia.org\/api\/getPlaceDetails?id=224362"},{"id":224364,"name":"Residence de Passage","address":"Nieuwendijk 224, Amsterdam, Netherlands","category":"accommodation","location":"Amsterdam","lat":52.373639,"lng":4.892608,"details":"http:\/\/tour-pedia.org\/api\/getPlaceDetails?id=224364"},{"id":224365,"name":"Metropolitan B&B","address":"Sint Nicolaasstraat 29, Amsterdam, Netherlands","category":"accommodation","location":"Amsterdam","lat":52.374898,"lng":4.892813,"numReviews":5,"reviews":"http:\/\/tour-pedia.org\/api\/getReviewsByPlaceId?placeId=224365","polarity":9,"details":"http:\/\/tour-pedia.org\/api\/getPlaceDetails?id=224365"},{"id":224366,"name":"Amsterdam Escape Apartments","address":"Geldersekade 106, Amsterdam, Netherlands","category":"accommodation","location":"Amsterdam","lat":52.37364,"lng":4.90065,"details":"http:\/\/tour-pedia.org\/api\/getPlaceDetails?id=224366"},{"id":224367,"name":"Hotel Season Star","address":"Beursstraat 27-1hg, Amsterdam, Netherlands","category":"accommodation","location":"Amsterdam","lat":52.374779,"lng":4.896542,"details":"http:\/\/tour-pedia.org\/api\/getPlaceDetails?id=224367"},{"id":224368,"name":"Hotel Tamara","address":"Nieuwezijds Voorburgwal 144, Amsterdam, Netherlands","category":"accommodation","location":"Amsterdam","lat":52.374842,"lng":4.891367,"numReviews":2,"reviews":"http:\/\/tour-pedia.org\/api\/getReviewsByPlaceId?placeId=224368","polarity":6,"details":"http:\/\/tour-pedia.org\/api\/getPlaceDetails?id=224368"},{"id":224369,"name":"Anne's Room","address":"Oudezijds Achterburgwal 142, Amsterdam, Netherlands","category":"accommodation","location":"Amsterdam","lat":52.37186,"lng":4.89709,"numReviews":5,"reviews":"http:\/\/tour-pedia.org\/api\/getReviewsByPlaceId?placeId=224369","polarity":8,"details":"http:\/\/tour-pedia.org\/api\/getPlaceDetails?id=224369"},{"id":224371,"name":"Durty Nellys Irish bar and hostel","address":"Warmoesstraat 115, Amsterdam, Netherlands","category":"accommodation","location":"Amsterdam","lat":52.374099,"lng":4.896443,"numReviews":2,"reviews":"http:\/\/tour-pedia.org\/api\/getReviewsByPlaceId?placeId=224371","polarity":8,"details":"http:\/\/tour-pedia.org\/api\/getPlaceDetails?id=224371"},{"id":224372,"name":"Hotel Season Star II B.V.","address":"Oudezijds Voorburgwal 21, Amsterdam, Netherlands","category":"accommodation","location":"Amsterdam","lat":52.374871,"lng":4.899859,"details":"http:\/\/tour-pedia.org\/api\/getPlaceDetails?id=224372"},{"id":224373,"name":"Dam Square Studio","address":"Spuistraat 103E, Amsterdam, Netherlands","category":"accommodation","location":"Amsterdam","lat":52.374847,"lng":4.890959,"details":"http:\/\/tour-pedia.org\/api\/getPlaceDetails?id=224373"},{"id":224374,"name":"Red Light Studio","address":"Lange Niezel 13B, Amsterdam, Netherlands","category":"accommodation","location":"Amsterdam","lat":52.374951,"lng":4.898536,"details":"http:\/\/tour-pedia.org\/api\/getPlaceDetails?id=224374"},{"id":224375,"name":"Amsterdam Lastminute Hotel Reservation","address":"Warmoesstraat 84, Amsterdam, Netherlands","category":"accommodation","location":"Amsterdam","lat":52.37485,"lng":4.897377,"details":"http:\/\/tour-pedia.org\/api\/getPlaceDetails?id=224375"},{"id":224376,"name":"M. de Vries","address":"Oudezijds Achterburgwal 134, Amsterdam, Netherlands","category":"accommodation","location":"Amsterdam","lat":52.371982,"lng":4.897245,"details":"http:\/\/tour-pedia.org\/api\/getPlaceDetails?id=224376"},{"id":224377,"name":"Amsterdam Apartments & B&B's","address":"Burgwallen-Nieuwe Zijde, Amsterdam, Netherlands","category":"accommodation","location":"Amsterdam","lat":52.373802,"lng":4.890934,"details":"http:\/\/tour-pedia.org\/api\/getPlaceDetails?id=224377"},{"id":224378,"name":"Jan Broers Exploitatie Maatschappij B.V.","address":"Monnikenstraat 5-7, Amsterdam, Netherlands","category":"accommodation","location":"Amsterdam","lat":52.373241,"lng":4.89938,"details":"http:\/\/tour-pedia.org\/api\/getPlaceDetails?id=224378"},{"id":224379,"name":"Fin Trading BV","address":"Damstraat 22 24, Amsterdam, Netherlands","category":"accommodation","location":"Amsterdam","lat":52.37213,"lng":4.894862,"details":"http:\/\/tour-pedia.org\/api\/getPlaceDetails?id=224379"},{"id":224380,"name":"Ruian BV","address":"Nieuwezijds Voorburgwal 160 BG, Amsterdam, Netherlands","category":"accommodation","location":"Amsterdam","lat":52.374471,"lng":4.891128,"details":"http:\/\/tour-pedia.org\/api\/getPlaceDetails?id=224380"},{"id":224381,"name":"DGF Property Management B.V.","address":"Damrak 68, Amsterdam, Netherlands","category":"accommodation","location":"Amsterdam","lat":52.374563,"lng":4.895044,"details":"http:\/\/tour-pedia.org\/api\/getPlaceDetails?id=224381"},{"id":224382,"name":"Kamer01","address":"Singel 416, Amsterdam, Netherlands","category":"accommodation","location":"Amsterdam","lat":52.368617,"lng":4.887523,"numReviews":1,"reviews":"http:\/\/tour-pedia.org\/api\/getReviewsByPlaceId?placeId=224382","polarity":10,"details":"http:\/\/tour-pedia.org\/api\/getPlaceDetails?id=224382"},{"id":224383,"name":"Dante Kitchen & Bar","address":"Spuistraat 320, Amsterdam, Netherlands","category":"accommodation","location":"Amsterdam","lat":52.369109,"lng":4.888601,"numReviews":3,"reviews":"http:\/\/tour-pedia.org\/api\/getReviewsByPlaceId?placeId=224383","polarity":7,"details":"http:\/\/tour-pedia.org\/api\/getPlaceDetails?id=224383"},{"id":224385,"name":"B&B 9 straatjes","address":"Runstraat 16, Amsterdam, Netherlands","category":"accommodation","location":"Amsterdam","lat":52.368936,"lng":4.883541,"details":"http:\/\/tour-pedia.org\/api\/getPlaceDetails?id=224385"},{"id":224386,"name":"Herengracht Apartment","address":"Huidenstraat 21, Amsterdam, Netherlands","category":"accommodation","location":"Amsterdam","lat":52.368871,"lng":4.885461,"details":"http:\/\/tour-pedia.org\/api\/getPlaceDetails?id=224386"},{"id":224387,"name":"Apartments Prinsengracht","address":"Prinsengracht 489, Amsterdam, Netherlands","category":"accommodation","location":"Amsterdam","lat":52.36952,"lng":4.882976,"details":"http:\/\/tour-pedia.org\/api\/getPlaceDetails?id=224387"},{"id":224388,"name":"The Suite Singel","address":"Singel 353, Amsterdam, Netherlands","category":"accommodation","location":"Amsterdam","lat":52.369486,"lng":4.888309,"details":"http:\/\/tour-pedia.org\/api\/getPlaceDetails?id=224388"},{"id":224390,"name":"Amsterbed","address":"Elandsgracht 39, Amsterdam, Netherlands","category":"accommodation","location":"Amsterdam","lat":52.369597,"lng":4.881034,"numReviews":1,"reviews":"http:\/\/tour-pedia.org\/api\/getReviewsByPlaceId?placeId=224390","polarity":10,"details":"http:\/\/tour-pedia.org\/api\/getPlaceDetails?id=224390"},{"id":224391,"name":"Luxury Keizersgracht Apartments","address":"Keizersgracht 357, Amsterdam, Netherlands","category":"accommodation","location":"Amsterdam","lat":52.368807,"lng":4.884952,"details":"http:\/\/tour-pedia.org\/api\/getPlaceDetails?id=224391"},{"id":224392,"name":"Home Run Bed and Breakfast","address":"Runstraat 17A, Amsterdam, Netherlands","category":"accommodation","location":"Amsterdam","lat":52.368879,"lng":4.883434,"details":"http:\/\/tour-pedia.org\/api\/getPlaceDetails?id=224392"},{"id":224393,"name":"Pose for Rose","address":"Wolvenstraat 16, Amsterdam, Netherlands","category":"accommodation","location":"Amsterdam","lat":52.370347,"lng":4.885765,"details":"http:\/\/tour-pedia.org\/api\/getPlaceDetails?id=224393"},{"id":224394,"name":"Hermsen \/ Henk","address":"Singel 344 SOU, Amsterdam, Netherlands","category":"accommodation","location":"Amsterdam","lat":52.370328,"lng":4.887759,"details":"http:\/\/tour-pedia.org\/api\/getPlaceDetails?id=224394"},{"id":224395,"name":"Domica Amsterdam","address":"Singel 370, Amsterdam, Netherlands","category":"accommodation","location":"Amsterdam","lat":52.36964,"lng":4.887628,"details":"http:\/\/tour-pedia.org\/api\/getPlaceDetails?id=224395"},{"id":224396,"name":"B&B MNQUE","address":"Spuistraat 297B, Amsterdam, Netherlands","category":"accommodation","location":"Amsterdam","lat":52.369102,"lng":4.888919,"details":"http:\/\/tour-pedia.org\/api\/getPlaceDetails?id=224396"},{"id":224397,"name":"Rembrandtplein Hotel","address":"Groenburgwal 27, Amsterdam, Netherlands","category":"accommodation","location":"Amsterdam","lat":52.368993,"lng":4.898567,"numReviews":5,"reviews":"http:\/\/tour-pedia.org\/api\/getReviewsByPlaceId?placeId=224397","polarity":6,"details":"http:\/\/tour-pedia.org\/api\/getPlaceDetails?id=224397"},{"id":224398,"name":"Ultraviolet Studios","address":"Oude Hoogstraat 12, Amsterdam, Netherlands","category":"accommodation","location":"Amsterdam","lat":52.371354,"lng":4.897359,"numReviews":1,"reviews":"http:\/\/tour-pedia.org\/api\/getReviewsByPlaceId?placeId=224398","polarity":9,"details":"http:\/\/tour-pedia.org\/api\/getPlaceDetails?id=224398"},{"id":224399,"name":"Kloveniersburgwal Apartment","address":"Kloveniersburgwal 42, Amsterdam, Netherlands","category":"accommodation","location":"Amsterdam","lat":52.371241,"lng":4.898614,"details":"http:\/\/tour-pedia.org\/api\/getPlaceDetails?id=224399"},{"id":224400,"name":"STEEL","address":"Staalstraat 32, Amsterdam, Netherlands","category":"accommodation","location":"Amsterdam","lat":52.368135,"lng":4.898371,"details":"http:\/\/tour-pedia.org\/api\/getPlaceDetails?id=224400"},{"id":224401,"name":"Studio 14 Bed&Breakfast","address":"Oudezijds Voorburgwal 330, Amsterdam, Netherlands","category":"accommodation","location":"Amsterdam","lat":52.369426,"lng":4.894063,"numReviews":1,"reviews":"http:\/\/tour-pedia.org\/api\/getReviewsByPlaceId?placeId=224401","polarity":10,"details":"http:\/\/tour-pedia.org\/api\/getPlaceDetails?id=224401"},{"id":224402,"name":"Apartment Oudezijdsvoorburgwal Hotel","address":"Oudezijds Voorburgwal 326, Amsterdam, Netherlands","category":"accommodation","location":"Amsterdam","lat":52.369533,"lng":4.894092,"details":"http:\/\/tour-pedia.org\/api\/getPlaceDetails?id=224402"},{"id":224403,"name":"Dons \/ M","address":"Sint Pieterspoortsteeg 27 1, Amsterdam, Netherlands","category":"accommodation","location":"Amsterdam","lat":52.371401,"lng":4.894426,"details":"http:\/\/tour-pedia.org\/api\/getPlaceDetails?id=224403"},{"id":224404,"name":"Abraham \/ D","address":"Rokin 104, Amsterdam, Netherlands","category":"accommodation","location":"Amsterdam","lat":52.369244,"lng":4.891712,"details":"http:\/\/tour-pedia.org\/api\/getPlaceDetails?id=224404"},{"id":224405,"name":"Samardzic \/ N","address":"Groenburgwal 27, Amsterdam, Netherlands","category":"accommodation","location":"Amsterdam","lat":52.368989,"lng":4.898581,"details":"http:\/\/tour-pedia.org\/api\/getPlaceDetails?id=224405"},{"id":224406,"name":"Amsterdam Canal Apartments: Korenbloemen","address":"Kloveniersburgwal 55, Amsterdam, Netherlands","category":"accommodation","location":"Amsterdam","lat":52.3704,"lng":4.898558,"details":"http:\/\/tour-pedia.org\/api\/getPlaceDetails?id=224406"},{"id":224407,"name":"J.r.s. Beheer B.V.","address":"Rokin 104-1HG, Amsterdam, Netherlands","category":"accommodation","location":"Amsterdam","lat":52.369244,"lng":4.891712,"details":"http:\/\/tour-pedia.org\/api\/getPlaceDetails?id=224407"},{"id":224408,"name":"Yoeli \/ D","address":"Oude Hoogstraat 7, Amsterdam, Netherlands","category":"accommodation","location":"Amsterdam","lat":52.371399,"lng":4.897355,"details":"http:\/\/tour-pedia.org\/api\/getPlaceDetails?id=224408"},{"id":224409,"name":"Vliegenbos","address":"Meeuwenlaan 138, Amsterdam, Netherlands","category":"accommodation","location":"Amsterdam","lat":52.389272,"lng":4.927067,"numReviews":5,"reviews":"http:\/\/tour-pedia.org\/api\/getReviewsByPlaceId?placeId=224409","polarity":7,"details":"http:\/\/tour-pedia.org\/api\/getPlaceDetails?id=224409"},{"id":224410,"name":"Caf\u00e9 Modern B.V.","address":"Meidoornweg 2, Amsterdam, Netherlands","category":"accommodation","location":"Amsterdam","lat":52.386513,"lng":4.908971,"numReviews":2,"reviews":"http:\/\/tour-pedia.org\/api\/getReviewsByPlaceId?placeId=224410","polarity":10,"details":"http:\/\/tour-pedia.org\/api\/getPlaceDetails?id=224410"},{"id":224411,"name":"Boven Ij","address":"Leeuwarderweg 50, Amsterdam, Netherlands","category":"accommodation","location":"Amsterdam","lat":52.392175,"lng":4.924659,"details":"http:\/\/tour-pedia.org\/api\/getPlaceDetails?id=224411"},{"id":224412,"name":"Mini Camping 't Uilenstekkie","address":"Termietergouw 1, Amsterdam, Netherlands","category":"accommodation","location":"Amsterdam","lat":52.410547,"lng":4.960923,"numReviews":1,"reviews":"http:\/\/tour-pedia.org\/api\/getReviewsByPlaceId?placeId=224412","polarity":0,"details":"http:\/\/tour-pedia.org\/api\/getPlaceDetails?id=224412"},{"id":224413,"name":"D-reizen Amsterdam","address":"Buikslotermeerplein 543, Amsterdam, Netherlands","category":"accommodation","location":"Amsterdam","lat":52.398006,"lng":4.940803,"details":"http:\/\/tour-pedia.org\/api\/getPlaceDetails?id=224413"},{"id":224414,"name":"OpenYourHotel Management BV","address":"C. Kruyswijkstraat 21, Amsterdam, Netherlands","category":"accommodation","location":"Amsterdam","lat":52.407675,"lng":4.933526,"details":"http:\/\/tour-pedia.org\/api\/getPlaceDetails?id=224414"},{"id":224415,"name":"Douce France Bemiddeling","address":"Zuiderzeepark 88, Amsterdam, Netherlands","category":"accommodation","location":"Amsterdam","lat":52.387823,"lng":4.956644,"details":"http:\/\/tour-pedia.org\/api\/getPlaceDetails?id=224415"},{"id":224416,"name":"Kuijt \/ M","address":"Termietergouw 7, Amsterdam, Netherlands","category":"accommodation","location":"Amsterdam","lat":52.40954,"lng":4.960436,"details":"http:\/\/tour-pedia.org\/api\/getPlaceDetails?id=224416"},{"id":224417,"name":"Priem \/ Y","address":"Nieuwendammerkade 11, Amsterdam, Netherlands","category":"accommodation","location":"Amsterdam","lat":52.388601,"lng":4.938647,"details":"http:\/\/tour-pedia.org\/api\/getPlaceDetails?id=224417"},{"id":224418,"name":"De Zwaan","address":"Dorpsweg Ransdorp 70, Amsterdam, Netherlands","category":"accommodation","location":"Amsterdam","lat":52.393519,"lng":4.994385,"numReviews":1,"reviews":"http:\/\/tour-pedia.org\/api\/getReviewsByPlaceId?placeId=224418","polarity":5,"details":"http:\/\/tour-pedia.org\/api\/getPlaceDetails?id=224418"},{"id":224419,"name":"Camping De Badhoeve","address":"Uitdammerdijk 10, Amsterdam, Netherlands","category":"accommodation","location":"Amsterdam","lat":52.385467,"lng":5.012095,"details":"http:\/\/tour-pedia.org\/api\/getPlaceDetails?id=224419"},{"id":224420,"name":"Giele \/ P","address":"Uitdammerdijk 10, Amsterdam, Netherlands","category":"accommodation","location":"Amsterdam","lat":52.385556,"lng":5.012896,"details":"http:\/\/tour-pedia.org\/api\/getPlaceDetails?id=224420"},{"id":224421,"name":"IJplein Bed and Breakfast","address":"Motorwal 189, Amsterdam, Netherlands","category":"accommodation","location":"Amsterdam","lat":52.383991,"lng":4.918353,"details":"http:\/\/tour-pedia.org\/api\/getPlaceDetails?id=224421"},{"id":224422,"name":"VillaTrips.com","address":"Boorstraat 1, Amsterdam, Netherlands","category":"accommodation","location":"Amsterdam","lat":52.382542,"lng":4.921382,"details":"http:\/\/tour-pedia.org\/api\/getPlaceDetails?id=224422"},{"id":224423,"name":"Cycletours Holidays","address":"Buiksloterweg 7A, Amsterdam, Netherlands","category":"accommodation","location":"Amsterdam","lat":52.383321,"lng":4.904569,"details":"http:\/\/tour-pedia.org\/api\/getPlaceDetails?id=224423"},{"id":224424,"name":"tweemastschoener het wapen van friesland","address":"Sumatrakade 1055, Amsterdam, Netherlands","category":"accommodation","location":"Amsterdam","lat":52.379216,"lng":4.927452,"details":"http:\/\/tour-pedia.org\/api\/getPlaceDetails?id=224424"},{"id":224425,"name":"Sjouwerman \/ H.d.","address":"Sumatrakade 665, Amsterdam, Netherlands","category":"accommodation","location":"Amsterdam","lat":52.37873,"lng":4.930762,"details":"http:\/\/tour-pedia.org\/api\/getPlaceDetails?id=224425"},{"id":224426,"name":"Sailing Home motorpassagiersschip","address":"Volewijck, Amsterdam, Netherlands","category":"accommodation","location":"Amsterdam","lat":52.38315,"lng":4.90505,"details":"http:\/\/tour-pedia.org\/api\/getPlaceDetails?id=224426"},{"id":224427,"name":"Mauro Mansion","address":"Geldersekade 16, Amsterdam, Netherlands","category":"accommodation","location":"Amsterdam","lat":52.375914,"lng":4.90184,"numReviews":2,"reviews":"http:\/\/tour-pedia.org\/api\/getReviewsByPlaceId?placeId=224427","polarity":10,"details":"http:\/\/tour-pedia.org\/api\/getPlaceDetails?id=224427"},{"id":224428,"name":"Il Giardino Hotel Amsterdam","address":"Nieuwmarkt en Lastage, Amsterdam, Netherlands","category":"accommodation","location":"Amsterdam","lat":52.37608,"lng":4.90276,"details":"http:\/\/tour-pedia.org\/api\/getPlaceDetails?id=224428"},{"id":224429,"name":"Nemo Guest Accommodations","address":"Prins Hendrikkade 133, Amsterdam, Netherlands","category":"accommodation","location":"Amsterdam","lat":52.373821,"lng":4.905568,"numReviews":1,"reviews":"http:\/\/tour-pedia.org\/api\/getReviewsByPlaceId?placeId=224429","polarity":10,"details":"http:\/\/tour-pedia.org\/api\/getPlaceDetails?id=224429"},{"id":224430,"name":"Beagle Houseboat","address":"Prins Hendrikkade 500, Amsterdam, Netherlands","category":"accommodation","location":"Amsterdam","lat":52.375676,"lng":4.904999,"numReviews":2,"reviews":"http:\/\/tour-pedia.org\/api\/getReviewsByPlaceId?placeId=224430","polarity":8,"details":"http:\/\/tour-pedia.org\/api\/getPlaceDetails?id=224430"},{"id":224431,"name":"Hotel Coffeeshop Voyagers","address":"Geldersekade 2, Amsterdam, Netherlands","category":"accommodation","location":"Amsterdam","lat":52.376332,"lng":4.902064,"numReviews":5,"reviews":"http:\/\/tour-pedia.org\/api\/getReviewsByPlaceId?placeId=224431","polarity":8,"details":"http:\/\/tour-pedia.org\/api\/getPlaceDetails?id=224431"},{"id":224432,"name":"Passenger Ship Maria Alberta","address":"Oosterdok 2, Amsterdam, Netherlands","category":"accommodation","location":"Amsterdam","lat":52.373808,"lng":4.912185,"numReviews":2,"reviews":"http:\/\/tour-pedia.org\/api\/getReviewsByPlaceId?placeId=224432","polarity":10,"details":"http:\/\/tour-pedia.org\/api\/getPlaceDetails?id=224432"},{"id":224433,"name":"Flying Monkey","address":"Prins Hendrikkade 102, Amsterdam, Netherlands","category":"accommodation","location":"Amsterdam","lat":52.375646,"lng":4.902978,"details":"http:\/\/tour-pedia.org\/api\/getPlaceDetails?id=224433"},{"id":224434,"name":"Antonia Houseboat","address":"Dijksgracht 12-B, Amsterdam, Netherlands","category":"accommodation","location":"Amsterdam","lat":52.376055,"lng":4.91719,"details":"http:\/\/tour-pedia.org\/api\/getPlaceDetails?id=224434"},{"id":224435,"name":"Marie-Anns Houseboat\/Deo Volente","address":"Dijksgracht 7, Amsterdam, Netherlands","category":"accommodation","location":"Amsterdam","lat":52.376611,"lng":4.913918,"details":"http:\/\/tour-pedia.org\/api\/getPlaceDetails?id=224435"},{"id":224436,"name":"Houseboat M.S. Atalanta - Amsterdam","address":"Prins Hendrikkade 518, Amsterdam, Netherlands","category":"accommodation","location":"Amsterdam","lat":52.374308,"lng":4.906849,"details":"http:\/\/tour-pedia.org\/api\/getPlaceDetails?id=224436"},{"id":224437,"name":"Warmoezier Exploitatie B.V.","address":"Binnen Bantammerstraat 9-I, Amsterdam, Netherlands","category":"accommodation","location":"Amsterdam","lat":52.373875,"lng":4.902152,"details":"http:\/\/tour-pedia.org\/api\/getPlaceDetails?id=224437"},{"id":224438,"name":"Maatschap P.W.L. Roeper en M.E. Roeper Go\u00ebnga","address":"Zaandammerdijk 2, De Waal, Nederland","category":"accommodation","location":"Amsterdam","lat":52.375261,"lng":4.902889,"details":"http:\/\/tour-pedia.org\/api\/getPlaceDetails?id=224438"},{"id":224439,"name":"Bar-Restaurant Maria","address":"Zeedijk 55, Amsterdam, Netherlands","category":"accommodation","location":"Amsterdam","lat":52.375041,"lng":4.901058,"numReviews":1,"reviews":"http:\/\/tour-pedia.org\/api\/getReviewsByPlaceId?placeId=224439","polarity":10,"details":"http:\/\/tour-pedia.org\/api\/getPlaceDetails?id=224439"},{"id":224440,"name":"Goede Verwachting","address":"Prins Hendrikkade 530, Amsterdam, Netherlands","category":"accommodation","location":"Amsterdam","lat":52.373815,"lng":4.907192,"details":"http:\/\/tour-pedia.org\/api\/getPlaceDetails?id=224440"},{"id":224441,"name":"FH Management B.V.","address":"Oudezijds Kolk 11, Amsterdam, Netherlands","category":"accommodation","location":"Amsterdam","lat":52.375993,"lng":4.901164,"details":"http:\/\/tour-pedia.org\/api\/getPlaceDetails?id=224441"},{"id":224442,"name":"Bed & Breakfast 'Tante Piet'","address":"Dijksgracht 22, Amsterdam, Netherlands","category":"accommodation","location":"Amsterdam","lat":52.375549,"lng":4.920171,"details":"http:\/\/tour-pedia.org\/api\/getPlaceDetails?id=224442"},{"id":224443,"name":"B&B ms.Onderneming","address":"Verbindingsdam 8, Amsterdam, Netherlands","category":"accommodation","location":"Amsterdam","lat":52.37598,"lng":4.937588,"details":"http:\/\/tour-pedia.org\/api\/getPlaceDetails?id=224443"},{"id":224444,"name":"Adam & Eva Lounge Restaurant","address":"Levantplein 84, Amsterdam, Netherlands","category":"accommodation","location":"Amsterdam","lat":52.376934,"lng":4.943297,"details":"http:\/\/tour-pedia.org\/api\/getPlaceDetails?id=224444"},{"id":224445,"name":"Levant bed & breakfast","address":"Levantkade 90, Amsterdam, Netherlands","category":"accommodation","location":"Amsterdam","lat":52.376278,"lng":4.941808,"details":"http:\/\/tour-pedia.org\/api\/getPlaceDetails?id=224445"},{"id":224446,"name":"Eden Rembrandt Square Hotel","address":"Amstelstraat 17, Amsterdam, Netherlands","category":"accommodation","location":"Amsterdam","lat":52.366275,"lng":4.89856,"numReviews":5,"reviews":"http:\/\/tour-pedia.org\/api\/getReviewsByPlaceId?placeId=224446","polarity":4,"details":"http:\/\/tour-pedia.org\/api\/getPlaceDetails?id=224446"},{"id":224447,"name":"Prince Hendrik Suites","address":"Prins Hendrikkade 173-174, Amsterdam, Netherlands","category":"accommodation","location":"Amsterdam","lat":52.371599,"lng":4.910392,"details":"http:\/\/tour-pedia.org\/api\/getPlaceDetails?id=224447"},{"id":224448,"name":"Apartments Unlimited (office)","address":"Kruithuisstraat 18, Amsterdam, Netherlands","category":"accommodation","location":"Amsterdam","lat":52.3673,"lng":4.921434,"numReviews":1,"reviews":"http:\/\/tour-pedia.org\/api\/getReviewsByPlaceId?placeId=224448","polarity":0,"details":"http:\/\/tour-pedia.org\/api\/getPlaceDetails?id=224448"},{"id":224449,"name":"Inn Old Amsterdam","address":"Nieuwmarkt 5, Amsterdam, Netherlands","category":"accommodation","location":"Amsterdam","lat":52.372632,"lng":4.901004,"details":"http:\/\/tour-pedia.org\/api\/getPlaceDetails?id=224449"},{"id":224450,"name":"City Center Waterlooplein","address":"Waterlooplein 29, Amsterdam, Netherlands","category":"accommodation","location":"Amsterdam","lat":52.368841,"lng":4.901463,"details":"http:\/\/tour-pedia.org\/api\/getPlaceDetails?id=224450"},{"id":224451,"name":"Hotel Waterloo Apartments","address":"Rapenburgerstraat 157, Amsterdam, Netherlands","category":"accommodation","location":"Amsterdam","lat":52.368454,"lng":4.906422,"details":"http:\/\/tour-pedia.org\/api\/getPlaceDetails?id=224451"},{"id":224452,"name":"Intersail","address":"Nautisch kwartier Oosterdok, Amserdam, Nederland","category":"accommodation","location":"Amsterdam","lat":52.37277,"lng":4.909837,"numReviews":1,"reviews":"http:\/\/tour-pedia.org\/api\/getReviewsByPlaceId?placeId=224452","polarity":10,"details":"http:\/\/tour-pedia.org\/api\/getPlaceDetails?id=224452"},{"id":224453,"name":"Hostelboat Anna Maria II","address":"Osterdok, Amsterdam, Netherlands","category":"accommodation","location":"Amsterdam","lat":52.372745,"lng":4.911055,"details":"http:\/\/tour-pedia.org\/api\/getPlaceDetails?id=224453"},{"id":224454,"name":"Hermitage B&B and Apartments","address":"Amstel 35, Amsterdam, Netherlands","category":"accommodation","location":"Amsterdam","lat":52.366432,"lng":4.90177,"details":"http:\/\/tour-pedia.org\/api\/getPlaceDetails?id=224454"},{"id":224455,"name":"Oude Waal Apartment","address":"Oude Waal 14, Amsterdam, Netherlands","category":"accommodation","location":"Amsterdam","lat":52.372281,"lng":4.905134,"details":"http:\/\/tour-pedia.org\/api\/getPlaceDetails?id=224455"},{"id":224456,"name":"Oude Waal","address":"Oude Waal 39, Amsterdam, Netherlands","category":"accommodation","location":"Amsterdam","lat":52.372281,"lng":4.905134,"details":"http:\/\/tour-pedia.org\/api\/getPlaceDetails?id=224456"},{"id":224457,"name":"Anna Houseboat","address":"Prins Hendrikkade 549, Amsterdam, Netherlands","category":"accommodation","location":"Amsterdam","lat":52.372975,"lng":4.907627,"details":"http:\/\/tour-pedia.org\/api\/getPlaceDetails?id=224457"},{"id":224458,"name":"Apartment Nieuwmarkt","address":"Uilenburgerwerf 54, Amsterdam, Netherlands","category":"accommodation","location":"Amsterdam","lat":52.369937,"lng":4.904833,"details":"http:\/\/tour-pedia.org\/api\/getPlaceDetails?id=224458"},{"id":224459,"name":"vd Krieke \/ M","address":"Recht Boomssloot 2, Amsterdam, Netherlands","category":"accommodation","location":"Amsterdam","lat":52.373257,"lng":4.901289,"details":"http:\/\/tour-pedia.org\/api\/getPlaceDetails?id=224459"},{"id":224460,"name":"InNsideAmsterdam Bed & Breakfast","address":"Binnenkant 31, Amsterdam, Netherlands","category":"accommodation","location":"Amsterdam","lat":52.373267,"lng":4.905024,"details":"http:\/\/tour-pedia.org\/api\/getPlaceDetails?id=224460"},{"id":224461,"name":"Amsterdam Hotels","address":"Plantage Parklaan 20, Amsterdam, Netherlands","category":"accommodation","location":"Amsterdam","lat":52.367915,"lng":4.910032,"details":"http:\/\/tour-pedia.org\/api\/getPlaceDetails?id=224461"},{"id":224462,"name":"Colle \/ D A A","address":"Plantage Parklaan 8, Amsterdam, Netherlands","category":"accommodation","location":"Amsterdam","lat":52.366774,"lng":4.909066,"details":"http:\/\/tour-pedia.org\/api\/getPlaceDetails?id=224462"},{"id":224463,"name":"Haverman \/ W M E","address":"Bootstraat 24 HS, Amsterdam, Netherlands","category":"accommodation","location":"Amsterdam","lat":52.371537,"lng":4.920931,"details":"http:\/\/tour-pedia.org\/api\/getPlaceDetails?id=224463"},{"id":224464,"name":"Dittmar \/ C","address":"Nieuwmarkt 5 \/1, Amsterdam, Netherlands","category":"accommodation","location":"Amsterdam","lat":52.372628,"lng":4.901001,"details":"http:\/\/tour-pedia.org\/api\/getPlaceDetails?id=224464"},{"id":224465,"name":"Bed & Breakfast 'Het Land Goesting'","address":"Prins Hendrikkade 535, Logeer op en prachtig voormalig vrachtschip, Amsterdam, Netherlands","category":"accommodation","location":"Amsterdam","lat":52.373352,"lng":4.907315,"details":"http:\/\/tour-pedia.org\/api\/getPlaceDetails?id=224465"},{"id":224466,"name":"Engelkamp \/ J J","address":"Valkenburgerstraat 208 2, Amsterdam, Netherlands","category":"accommodation","location":"Amsterdam","lat":52.369087,"lng":4.90513,"details":"http:\/\/tour-pedia.org\/api\/getPlaceDetails?id=224466"},{"id":224467,"name":"Euro Inn B.V.","address":"Valkenburgerstraat 72-74, Amsterdam, Netherlands","category":"accommodation","location":"Amsterdam","lat":52.369932,"lng":4.907338,"details":"http:\/\/tour-pedia.org\/api\/getPlaceDetails?id=224467"},{"id":224468,"name":"Hurkens \/ J A M","address":"Plantage Middenlaan 26, Amsterdam, Netherlands","category":"accommodation","location":"Amsterdam","lat":52.366409,"lng":4.911427,"details":"http:\/\/tour-pedia.org\/api\/getPlaceDetails?id=224468"},{"id":224469,"name":"Simonse \/ R A","address":"Amstel 146, Amsterdam, Netherlands","category":"accommodation","location":"Amsterdam","lat":52.366897,"lng":4.898779,"details":"http:\/\/tour-pedia.org\/api\/getPlaceDetails?id=224469"},{"id":224470,"name":"Stout&Co.","address":"bed&breakfast, Hoogte Kadijk 71, Amsterdam, Netherlands","category":"accommodation","location":"Amsterdam","lat":52.368871,"lng":4.916863,"details":"http:\/\/tour-pedia.org\/api\/getPlaceDetails?id=224470"},{"id":224471,"name":"B&B Orange-Amsterdam","address":"Ingenieur Jakoba Mulderplein 16, Amsterdam, Netherlands","category":"accommodation","location":"Amsterdam","lat":52.366294,"lng":4.924108,"numReviews":1,"reviews":"http:\/\/tour-pedia.org\/api\/getReviewsByPlaceId?placeId=224471","polarity":5,"details":"http:\/\/tour-pedia.org\/api\/getPlaceDetails?id=224471"},{"id":224472,"name":"Lucky Piper Houseboat Apartment","address":"Zeeburgerpad 173, Amsterdam, Netherlands","category":"accommodation","location":"Amsterdam","lat":52.366758,"lng":4.935152,"details":"http:\/\/tour-pedia.org\/api\/getPlaceDetails?id=224472"},{"id":224473,"name":"Somoya's Saloon","address":"Borneokade 60, Amsterdam, Netherlands","category":"accommodation","location":"Amsterdam","lat":52.370802,"lng":4.943982,"details":"http:\/\/tour-pedia.org\/api\/getPlaceDetails?id=224473"},{"id":224474,"name":"Bed and Breakfast Borneo","address":"Borneokade 285, Amsterdam, Netherlands","category":"accommodation","location":"Amsterdam","lat":52.371477,"lng":4.948563,"details":"http:\/\/tour-pedia.org\/api\/getPlaceDetails?id=224474"},{"id":224475,"name":"Van Schijndel \/ S C","address":"Ertskade 2, Amsterdam, Netherlands","category":"accommodation","location":"Amsterdam","lat":52.375027,"lng":4.948758,"details":"http:\/\/tour-pedia.org\/api\/getPlaceDetails?id=224475"},{"id":224476,"name":"Hotel-Restaurant","address":"Durgerdammerdijk 73, Amsterdam, Netherlands","category":"accommodation","location":"Amsterdam","lat":52.377486,"lng":4.988602,"numReviews":5,"reviews":"http:\/\/tour-pedia.org\/api\/getReviewsByPlaceId?placeId=224476","polarity":7,"details":"http:\/\/tour-pedia.org\/api\/getPlaceDetails?id=224476"},{"id":224477,"name":"Bed and Breakfast Durgerdam","address":"Durgerdammergouw 35, Amsterdam, Netherlands","category":"accommodation","location":"Amsterdam","lat":52.384791,"lng":5.002579,"numReviews":1,"reviews":"http:\/\/tour-pedia.org\/api\/getReviewsByPlaceId?placeId=224477","polarity":10,"details":"http:\/\/tour-pedia.org\/api\/getPlaceDetails?id=224477"},{"id":224478,"name":"Amsta","address":"Rengerskerkestraat 85, Amsterdam, Netherlands","category":"accommodation","location":"Amsterdam","lat":52.354386,"lng":4.794064,"details":"http:\/\/tour-pedia.org\/api\/getPlaceDetails?id=224478"},{"id":224479,"name":"Las Vegas","address":"Woestduinstraat 155, Amsterdam, Netherlands","category":"accommodation","location":"Amsterdam","lat":52.349622,"lng":4.847804,"details":"http:\/\/tour-pedia.org\/api\/getPlaceDetails?id=224479"},{"id":224480,"name":"Bed and Breakfast Amsterdam","address":"Sloterkade 65, Amsterdam, Netherlands","category":"accommodation","location":"Amsterdam","lat":52.354532,"lng":4.853003,"numReviews":5,"reviews":"http:\/\/tour-pedia.org\/api\/getReviewsByPlaceId?placeId=224480","polarity":8,"details":"http:\/\/tour-pedia.org\/api\/getPlaceDetails?id=224480"},{"id":224481,"name":"Wooden Mill B&B","address":"Lomanstraat 94, Amsterdam, Netherlands","category":"accommodation","location":"Amsterdam","lat":52.350893,"lng":4.857891,"numReviews":1,"reviews":"http:\/\/tour-pedia.org\/api\/getReviewsByPlaceId?placeId=224481","polarity":10,"details":"http:\/\/tour-pedia.org\/api\/getPlaceDetails?id=224481"},{"id":224482,"name":"Flores & Puck Bed & Breakfast Amsterdam","address":"Rietwijkerstraat 51, Amsterdam, Netherlands","category":"accommodation","location":"Amsterdam","lat":52.349473,"lng":4.848008,"details":"http:\/\/tour-pedia.org\/api\/getPlaceDetails?id=224482"},{"id":224483,"name":"Blaine's B&B","address":"Rijnsburgstraat 24-3hg, Amsterdam, Netherlands","category":"accommodation","location":"Amsterdam","lat":52.347276,"lng":4.848986,"numReviews":1,"reviews":"http:\/\/tour-pedia.org\/api\/getReviewsByPlaceId?placeId=224483","polarity":10,"details":"http:\/\/tour-pedia.org\/api\/getPlaceDetails?id=224483"},{"id":224484,"name":"Theater de Cameleon","address":"Derde Kostverlorenkade 35, Amsterdam, Netherlands","category":"accommodation","location":"Amsterdam","lat":52.35837,"lng":4.855827,"details":"http:\/\/tour-pedia.org\/api\/getPlaceDetails?id=224484"},{"id":224485,"name":"Vondelpark Studio","address":"Frederiksstraat 11, Amsterdam, Netherlands","category":"accommodation","location":"Amsterdam","lat":52.358245,"lng":4.859226,"numReviews":5,"reviews":"http:\/\/tour-pedia.org\/api\/getReviewsByPlaceId?placeId=224485","polarity":7,"details":"http:\/\/tour-pedia.org\/api\/getPlaceDetails?id=224485"},{"id":224486,"name":"Rietvelt Apartment","address":"Rietwijkerstraat 68, Amsterdam, Netherlands","category":"accommodation","location":"Amsterdam","lat":52.34947,"lng":4.846604,"details":"http:\/\/tour-pedia.org\/api\/getPlaceDetails?id=224486"},{"id":224487,"name":"CTS","address":"Amstelveenseweg 114-2, Amsterdam, Netherlands","category":"accommodation","location":"Amsterdam","lat":52.355229,"lng":4.855062,"details":"http:\/\/tour-pedia.org\/api\/getPlaceDetails?id=224487"},{"id":224488,"name":"Inn-grid's Logies","address":"Schinkelkade 51, Amsterdam, Netherlands","category":"accommodation","location":"Amsterdam","lat":52.351116,"lng":4.852885,"details":"http:\/\/tour-pedia.org\/api\/getPlaceDetails?id=224488"},{"id":224489,"name":"Zalcman \/ O R","address":"Zeilstraat 20 2, Amsterdam, Netherlands","category":"accommodation","location":"Amsterdam","lat":52.35121,"lng":4.855061,"details":"http:\/\/tour-pedia.org\/api\/getPlaceDetails?id=224489"},{"id":224490,"name":"Miljonairstyle","address":"Lomanstraat 112, Amsterdam, Netherlands","category":"accommodation","location":"Amsterdam","lat":52.350751,"lng":4.857337,"details":"http:\/\/tour-pedia.org\/api\/getPlaceDetails?id=224490"},{"id":224491,"name":"Jaspers \/ M J M","address":"Sloterkade 62, Amsterdam, Netherlands","category":"accommodation","location":"Amsterdam","lat":52.354703,"lng":4.853052,"details":"http:\/\/tour-pedia.org\/api\/getPlaceDetails?id=224491"},{"id":224492,"name":"van Ginkel \/ W","address":"Haarlemmermeerstraat 64 \/HUIS, Amsterdam, Netherlands","category":"accommodation","location":"Amsterdam","lat":52.355994,"lng":4.850188,"details":"http:\/\/tour-pedia.org\/api\/getPlaceDetails?id=224492"},{"id":224493,"name":"Avdd Horeca B.V.","address":"Sloterkade 62, Amsterdam, Netherlands","category":"accommodation","location":"Amsterdam","lat":52.354703,"lng":4.853052,"details":"http:\/\/tour-pedia.org\/api\/getPlaceDetails?id=224493"},{"id":224494,"name":"Fusion Suites","address":"Roemer Visscherstraat 40, Amsterdam, Netherlands","category":"accommodation","location":"Amsterdam","lat":52.361349,"lng":4.876615,"numReviews":1,"reviews":"http:\/\/tour-pedia.org\/api\/getReviewsByPlaceId?placeId=224494","polarity":9,"details":"http:\/\/tour-pedia.org\/api\/getPlaceDetails?id=224494"},{"id":224495,"name":"Vondel View B&B","address":"Gerard Brandtstraat 14 \/HS, Amsterdam, Netherlands","category":"accommodation","location":"Amsterdam","lat":52.360317,"lng":4.868098,"numReviews":1,"reviews":"http:\/\/tour-pedia.org\/api\/getReviewsByPlaceId?placeId=224495","polarity":10,"details":"http:\/\/tour-pedia.org\/api\/getPlaceDetails?id=224495"},{"id":224496,"name":"Hotel Parkzicht","address":"Museumkwartier, Amsterdam, Netherlands","category":"accommodation","location":"Amsterdam","lat":52.36133,"lng":4.87703,"details":"http:\/\/tour-pedia.org\/api\/getPlaceDetails?id=224496"},{"id":224497,"name":"Vondelpark Apartments","address":"Eerste Constantijn Huygensstraat 118, Amsterdam, Netherlands","category":"accommodation","location":"Amsterdam","lat":52.362071,"lng":4.875525,"details":"http:\/\/tour-pedia.org\/api\/getPlaceDetails?id=224497"},{"id":224498,"name":"Annette's B&B","address":"Brederodestraat 76-H, Amsterdam, Netherlands","category":"accommodation","location":"Amsterdam","lat":52.361407,"lng":4.864396,"numReviews":1,"reviews":"http:\/\/tour-pedia.org\/api\/getReviewsByPlaceId?placeId=224498","polarity":10,"details":"http:\/\/tour-pedia.org\/api\/getPlaceDetails?id=224498"},{"id":224499,"name":"Suite 259","address":"Overtoom 259, Amsterdam, Netherlands","category":"accommodation","location":"Amsterdam","lat":52.360657,"lng":4.867753,"details":"http:\/\/tour-pedia.org\/api\/getPlaceDetails?id=224499"},{"id":224500,"name":"Amsterdam Park Holiday Rooms","address":"Overtoom 251, Amsterdam, Netherlands","category":"accommodation","location":"Amsterdam","lat":52.36075,"lng":4.86813,"numReviews":1,"reviews":"http:\/\/tour-pedia.org\/api\/getReviewsByPlaceId?placeId=224500","polarity":10,"details":"http:\/\/tour-pedia.org\/api\/getPlaceDetails?id=224500"},{"id":224501,"name":"CityHub","address":"Eerste Helmersstraat 80, Amsterdam, Netherlands","category":"accommodation","location":"Amsterdam","lat":52.363215,"lng":4.873639,"details":"http:\/\/tour-pedia.org\/api\/getPlaceDetails?id=224501"},{"id":224502,"name":"Annette's Bed and Breakfast","address":"Brederodestraat 76, Amsterdam, Netherlands","category":"accommodation","location":"Amsterdam","lat":52.361407,"lng":4.864396,"details":"http:\/\/tour-pedia.org\/api\/getPlaceDetails?id=224502"},{"id":224503,"name":"Impala","address":"De Weteringschans, Amsterdam, Netherlands","category":"accommodation","location":"Amsterdam","lat":52.36475,"lng":4.87977,"numReviews":1,"reviews":"http:\/\/tour-pedia.org\/api\/getReviewsByPlaceId?placeId=224503","polarity":0,"details":"http:\/\/tour-pedia.org\/api\/getPlaceDetails?id=224503"},{"id":224504,"name":"Guesthouse Overtoom","address":"Overtoom 480, Amsterdam, Netherlands","category":"accommodation","location":"Amsterdam","lat":52.359324,"lng":4.860775,"details":"http:\/\/tour-pedia.org\/api\/getPlaceDetails?id=224504"},{"id":224505,"name":"ACH Leidse Square","address":"Tesselschadestraat 23, ET Amsterdam, Nederland","category":"accommodation","location":"Amsterdam","lat":52.36213,"lng":4.878356,"details":"http:\/\/tour-pedia.org\/api\/getPlaceDetails?id=224505"},{"id":224506,"name":"Overtoom Apartment","address":"Wilheminastraat 127 II, Netherlands","category":"accommodation","location":"Amsterdam","lat":52.36127,"lng":4.861927,"details":"http:\/\/tour-pedia.org\/api\/getPlaceDetails?id=224506"},{"id":224507,"name":"Bed Breakfast Fun","address":"Overtoom 353, Amsterdam, Netherlands","category":"accommodation","location":"Amsterdam","lat":52.359692,"lng":4.863566,"details":"http:\/\/tour-pedia.org\/api\/getPlaceDetails?id=224507"},{"id":224508,"name":"Bed and Breakfast Helmers","address":"Eerste Constantijn Huygensstraat 59, Amsterdam, Netherlands","category":"accommodation","location":"Amsterdam","lat":52.363341,"lng":4.875136,"details":"http:\/\/tour-pedia.org\/api\/getPlaceDetails?id=224508"},{"id":224509,"name":"traza 37 guestroom","address":"Wilhelminastraat 37, Amsterdam, Netherlands","category":"accommodation","location":"Amsterdam","lat":52.362123,"lng":4.865867,"details":"http:\/\/tour-pedia.org\/api\/getPlaceDetails?id=224509"},{"id":224510,"name":"TIAC Hotel Exploitatie B.V.","address":"Nassaukade 390, Amsterdam, Netherlands","category":"accommodation","location":"Amsterdam","lat":52.364116,"lng":4.878432,"details":"http:\/\/tour-pedia.org\/api\/getPlaceDetails?id=224510"},{"id":224511,"name":"de Kruijf \/ J T","address":"Leidsekade 75 \/HS, Amsterdam, Netherlands","category":"accommodation","location":"Amsterdam","lat":52.364957,"lng":4.879953,"details":"http:\/\/tour-pedia.org\/api\/getPlaceDetails?id=224511"},{"id":224512,"name":"Linwang B.V.","address":"Marnixstraat 374, Amsterdam, Netherlands","category":"accommodation","location":"Amsterdam","lat":52.365761,"lng":4.879807,"details":"http:\/\/tour-pedia.org\/api\/getPlaceDetails?id=224512"},{"id":224513,"name":"Leidsekade Corner BV","address":"Overtoom 33, Amsterdam, Netherlands","category":"accommodation","location":"Amsterdam","lat":52.363199,"lng":4.877408,"details":"http:\/\/tour-pedia.org\/api\/getPlaceDetails?id=224513"},{"id":224514,"name":"Filosoof Vastgoed B.V.","address":"Anna van den Vondelstraat 4-6, Amsterdam, Netherlands","category":"accommodation","location":"Amsterdam","lat":52.360808,"lng":4.869464,"details":"http:\/\/tour-pedia.org\/api\/getPlaceDetails?id=224514"},{"id":224515,"name":"Pijnappel \/ M H C","address":"Gerard Brandtstraat 14 \/HS, Amsterdam, Netherlands","category":"accommodation","location":"Amsterdam","lat":52.360317,"lng":4.868098,"details":"http:\/\/tour-pedia.org\/api\/getPlaceDetails?id=224515"},{"id":224516,"name":"Duijkers Bosboom \/ J A M","address":"Vondelstraat 78, Amsterdam, Netherlands","category":"accommodation","location":"Amsterdam","lat":52.361874,"lng":4.875385,"details":"http:\/\/tour-pedia.org\/api\/getPlaceDetails?id=224516"},{"id":224517,"name":"Heyboer \/ J M","address":"Brederodestraat 76 HS, Amsterdam, Netherlands","category":"accommodation","location":"Amsterdam","lat":52.361407,"lng":4.864396,"details":"http:\/\/tour-pedia.org\/api\/getPlaceDetails?id=224517"},{"id":224518,"name":"Luxe loft in Italiaanse Bloemenriviera!","address":"Egelantiersgracht 32BII, Amsterdam, Netherlands","category":"accommodation","location":"Amsterdam","lat":52.361333,"lng":4.862799,"details":"http:\/\/tour-pedia.org\/api\/getPlaceDetails?id=224518"},{"id":224519,"name":"Bed in Mokum","address":"Bosboom Toussaintstraat 39HS, Amsterdam, Netherlands","category":"accommodation","location":"Amsterdam","lat":52.36542,"lng":4.875913,"details":"http:\/\/tour-pedia.org\/api\/getPlaceDetails?id=224519"},{"id":224520,"name":"Adamgoodstay home stay","address":"Leidsestraat 86, Amsterdam, Netherlands","category":"accommodation","location":"Amsterdam","lat":52.364807,"lng":4.883865,"numReviews":1,"reviews":"http:\/\/tour-pedia.org\/api\/getReviewsByPlaceId?placeId=224520","polarity":10,"details":"http:\/\/tour-pedia.org\/api\/getPlaceDetails?id=224520"},{"id":224521,"name":"Anno 1685","address":"Leidsegracht 56, Amsterdam, Netherlands","category":"accommodation","location":"Amsterdam","lat":52.36642,"lng":4.883412,"details":"http:\/\/tour-pedia.org\/api\/getPlaceDetails?id=224521"},{"id":224522,"name":"Marcel's Creative Exchange","address":"Leidsestraat 87, Amsterdam, Netherlands","category":"accommodation","location":"Amsterdam","lat":52.364778,"lng":4.884062,"details":"http:\/\/tour-pedia.org\/api\/getPlaceDetails?id=224522"},{"id":224523,"name":"City Centre Church Apartments","address":"Kerkstraat 51, Amsterdam, Netherlands","category":"accommodation","location":"Amsterdam","lat":52.365244,"lng":4.885814,"details":"http:\/\/tour-pedia.org\/api\/getPlaceDetails?id=224523"},{"id":224524,"name":"De Leydsche Hof","address":"Leidsegracht 14, Amsterdam, Netherlands","category":"accommodation","location":"Amsterdam","lat":52.367415,"lng":4.885815,"details":"http:\/\/tour-pedia.org\/api\/getPlaceDetails?id=224524"},{"id":224525,"name":"Wildervanck Bed & Breakfast","address":"Grachtengordel-West, Amsterdam, Netherlands","category":"accommodation","location":"Amsterdam","lat":52.36606,"lng":4.88571,"numReviews":2,"reviews":"http:\/\/tour-pedia.org\/api\/getReviewsByPlaceId?placeId=224525","polarity":5,"details":"http:\/\/tour-pedia.org\/api\/getPlaceDetails?id=224525"},